{"type": "FeatureCollection", "features": [{"type":"Feature","geometry":{"type":"Point","coordinates":[-85.46164,37.81109]},"properties":{"zipcode":40004,"city":"Bardstown","state":"KY","dentist_count":5,"latitude":37.81109,"longitude":-85.46164,"cartodb_id":1,"created_at":"2014-10-13T23:05:37Z","updated_at":"2014-10-13T23:05:37Z"}},{"type":"Feature","geometry":{"type":"Point","coordinates":[-85.45075,38.366467]},"properties":{"zipcode":40010,"city":"Buckner","state":"KY","dentist_count":1,"latitude":38.366467,"longitude":-85.45075,"cartodb_id":2,"created_at":"2014-10-13T23:05:37Z","updated_at":"2014-10-13T23:05:37Z"}},{"type":"Feature","geometry":{"type":"Point","coordinates":[-85.4584,38.335106]},"properties":{"zipcode":40014,"city":"Crestwood","state":"KY","dentist_count":5,"latitude":38.335106,"longitude":-85.4584,"cartodb_id":3,"created_at":"2014-10-13T23:05:37Z","updated_at":"2014-10-13T23:05:37Z"}},{"type":"Feature","geometry":{"type":"Point","coordinates":[-85.57066,38.411964]},"properties":{"zipcode":40026,"city":"Goshen","state":"KY","dentist_count":1,"latitude":38.411964,"longitude":-85.57066,"cartodb_id":4,"created_at":"2014-10-13T23:05:37Z","updated_at":"2014-10-13T23:05:37Z"}},{"type":"Feature","geometry":{"type":"Point","coordinates":[-85.38475,38.407833]},"properties":{"zipcode":40031,"city":"La Grange","state":"KY","dentist_count":3,"latitude":38.407833,"longitude":-85.38475,"cartodb_id":5,"created_at":"2014-10-13T23:05:37Z","updated_at":"2014-10-13T23:05:37Z"}},{"type":"Feature","geometry":{"type":"Point","coordinates":[-85.25148,37.565894]},"properties":{"zipcode":40033,"city":"Lebanon","state":"KY","dentist_count":2,"latitude":37.565894,"longitude":-85.25148,"cartodb_id":6,"created_at":"2014-10-13T23:05:37Z","updated_at":"2014-10-13T23:05:37Z"}},{"type":"Feature","geometry":{"type":"Point","coordinates":[-85.55467,38.045982]},"properties":{"zipcode":40047,"city":"Mount Washington","state":"KY","dentist_count":2,"latitude":38.045982,"longitude":-85.55467,"cartodb_id":7,"created_at":"2014-10-13T23:05:37Z","updated_at":"2014-10-13T23:05:37Z"}},{"type":"Feature","geometry":{"type":"Point","coordinates":[-85.48714,38.308109]},"properties":{"zipcode":40056,"city":"Pewee Valley","state":"KY","dentist_count":1,"latitude":38.308109,"longitude":-85.48714,"cartodb_id":8,"created_at":"2014-10-13T23:05:37Z","updated_at":"2014-10-13T23:05:37Z"}},{"type":"Feature","geometry":{"type":"Point","coordinates":[-85.60042,38.350915]},"properties":{"zipcode":40059,"city":"Prospect","state":"KY","dentist_count":6,"latitude":38.350915,"longitude":-85.60042,"cartodb_id":9,"created_at":"2014-10-13T23:05:37Z","updated_at":"2014-10-13T23:05:37Z"}},{"type":"Feature","geometry":{"type":"Point","coordinates":[-85.21658,38.211511]},"properties":{"zipcode":40065,"city":"Shelbyville","state":"KY","dentist_count":4,"latitude":38.211511,"longitude":-85.21658,"cartodb_id":10,"created_at":"2014-10-13T23:05:37Z","updated_at":"2014-10-13T23:05:37Z"}},{"type":"Feature","geometry":{"type":"Point","coordinates":[-85.22257,37.702418]},"properties":{"zipcode":40069,"city":"Springfield","state":"KY","dentist_count":2,"latitude":37.702418,"longitude":-85.22257,"cartodb_id":11,"created_at":"2014-10-13T23:05:37Z","updated_at":"2014-10-13T23:05:37Z"}},{"type":"Feature","geometry":{"type":"Point","coordinates":[-85.36427,38.045406]},"properties":{"zipcode":40071,"city":"Taylorsville","state":"KY","dentist_count":1,"latitude":38.045406,"longitude":-85.36427,"cartodb_id":12,"created_at":"2014-10-13T23:05:37Z","updated_at":"2014-10-13T23:05:37Z"}},{"type":"Feature","geometry":{"type":"Point","coordinates":[-86.11831,37.973094]},"properties":{"zipcode":40108,"city":"Brandenburg","state":"KY","dentist_count":1,"latitude":37.973094,"longitude":-86.11831,"cartodb_id":13,"created_at":"2014-10-13T23:05:37Z","updated_at":"2014-10-13T23:05:37Z"}},{"type":"Feature","geometry":{"type":"Point","coordinates":[-85.75362,38.106135]},"properties":{"zipcode":40118,"city":"Fairdale","state":"KY","dentist_count":1,"latitude":38.106135,"longitude":-85.75362,"cartodb_id":14,"created_at":"2014-10-13T23:05:37Z","updated_at":"2014-10-13T23:05:37Z"}},{"type":"Feature","geometry":{"type":"Point","coordinates":[-85.9662,37.895491]},"properties":{"zipcode":40121,"city":"Fort Knox","state":"KY","dentist_count":1,"latitude":37.895491,"longitude":-85.9662,"cartodb_id":15,"created_at":"2014-10-13T23:05:37Z","updated_at":"2014-10-13T23:05:37Z"}},{"type":"Feature","geometry":{"type":"Point","coordinates":[-86.48345,37.777083]},"properties":{"zipcode":40143,"city":"Hardinsburg","state":"KY","dentist_count":2,"latitude":37.777083,"longitude":-86.48345,"cartodb_id":16,"created_at":"2014-10-13T23:05:37Z","updated_at":"2014-10-13T23:05:37Z"}},{"type":"Feature","geometry":{"type":"Point","coordinates":[-85.73269,37.849334]},"properties":{"zipcode":40150,"city":"Lebanon Junction","state":"KY","dentist_count":1,"latitude":37.849334,"longitude":-85.73269,"cartodb_id":17,"created_at":"2014-10-13T23:05:37Z","updated_at":"2014-10-13T23:05:37Z"}},{"type":"Feature","geometry":{"type":"Point","coordinates":[-85.93888,37.828459]},"properties":{"zipcode":40160,"city":"Radcliff","state":"KY","dentist_count":5,"latitude":37.828459,"longitude":-85.93888,"cartodb_id":18,"created_at":"2014-10-13T23:05:37Z","updated_at":"2014-10-13T23:05:37Z"}},{"type":"Feature","geometry":{"type":"Point","coordinates":[-85.69667,37.997938]},"properties":{"zipcode":40165,"city":"Shepherdsville","state":"KY","dentist_count":5,"latitude":37.997938,"longitude":-85.69667,"cartodb_id":19,"created_at":"2014-10-13T23:05:37Z","updated_at":"2014-10-13T23:05:37Z"}},{"type":"Feature","geometry":{"type":"Point","coordinates":[-86.00692,37.826822]},"properties":{"zipcode":40175,"city":"Vine Grove","state":"KY","dentist_count":1,"latitude":37.826822,"longitude":-86.00692,"cartodb_id":20,"created_at":"2014-10-13T23:05:37Z","updated_at":"2014-10-13T23:05:37Z"}},{"type":"Feature","geometry":{"type":"Point","coordinates":[-85.75137,38.252854]},"properties":{"zipcode":40202,"city":"Louisville","state":"KY","dentist_count":23,"latitude":38.252854,"longitude":-85.75137,"cartodb_id":21,"created_at":"2014-10-13T23:05:37Z","updated_at":"2014-10-13T23:05:37Z"}},{"type":"Feature","geometry":{"type":"Point","coordinates":[-85.7665,38.248106]},"properties":{"zipcode":40203,"city":"Louisville","state":"KY","dentist_count":1,"latitude":38.248106,"longitude":-85.7665,"cartodb_id":22,"created_at":"2014-10-13T23:05:37Z","updated_at":"2014-10-13T23:05:37Z"}},{"type":"Feature","geometry":{"type":"Point","coordinates":[-85.72626,38.23862]},"properties":{"zipcode":40204,"city":"Louisville","state":"KY","dentist_count":5,"latitude":38.23862,"longitude":-85.72626,"cartodb_id":23,"created_at":"2014-10-13T23:05:37Z","updated_at":"2014-10-13T23:05:37Z"}},{"type":"Feature","geometry":{"type":"Point","coordinates":[-85.68326,38.22292]},"properties":{"zipcode":40205,"city":"Louisville","state":"KY","dentist_count":8,"latitude":38.22292,"longitude":-85.68326,"cartodb_id":24,"created_at":"2014-10-13T23:05:37Z","updated_at":"2014-10-13T23:05:37Z"}},{"type":"Feature","geometry":{"type":"Point","coordinates":[-85.70254,38.254671]},"properties":{"zipcode":40206,"city":"Louisville","state":"KY","dentist_count":4,"latitude":38.254671,"longitude":-85.70254,"cartodb_id":25,"created_at":"2014-10-13T23:05:37Z","updated_at":"2014-10-13T23:05:37Z"}},{"type":"Feature","geometry":{"type":"Point","coordinates":[-85.65134,38.257489]},"properties":{"zipcode":40207,"city":"Louisville","state":"KY","dentist_count":34,"latitude":38.257489,"longitude":-85.65134,"cartodb_id":26,"created_at":"2014-10-13T23:05:37Z","updated_at":"2014-10-13T23:05:37Z"}},{"type":"Feature","geometry":{"type":"Point","coordinates":[-85.76241,38.218764]},"properties":{"zipcode":40208,"city":"Louisville","state":"KY","dentist_count":1,"latitude":38.218764,"longitude":-85.76241,"cartodb_id":27,"created_at":"2014-10-13T23:05:37Z","updated_at":"2014-10-13T23:05:37Z"}},{"type":"Feature","geometry":{"type":"Point","coordinates":[-85.81181,38.24142]},"properties":{"zipcode":40211,"city":"Louisville","state":"KY","dentist_count":2,"latitude":38.24142,"longitude":-85.81181,"cartodb_id":28,"created_at":"2014-10-13T23:05:37Z","updated_at":"2014-10-13T23:05:37Z"}},{"type":"Feature","geometry":{"type":"Point","coordinates":[-85.71304,38.186126]},"properties":{"zipcode":40213,"city":"Louisville","state":"KY","dentist_count":2,"latitude":38.186126,"longitude":-85.71304,"cartodb_id":29,"created_at":"2014-10-13T23:05:37Z","updated_at":"2014-10-13T23:05:37Z"}},{"type":"Feature","geometry":{"type":"Point","coordinates":[-85.77624,38.160936]},"properties":{"zipcode":40214,"city":"Louisville","state":"KY","dentist_count":11,"latitude":38.160936,"longitude":-85.77624,"cartodb_id":30,"created_at":"2014-10-13T23:05:37Z","updated_at":"2014-10-13T23:05:37Z"}},{"type":"Feature","geometry":{"type":"Point","coordinates":[-85.78405,38.19192]},"properties":{"zipcode":40215,"city":"Louisville","state":"KY","dentist_count":6,"latitude":38.19192,"longitude":-85.78405,"cartodb_id":31,"created_at":"2014-10-13T23:05:37Z","updated_at":"2014-10-13T23:05:37Z"}},{"type":"Feature","geometry":{"type":"Point","coordinates":[-85.83137,38.188886]},"properties":{"zipcode":40216,"city":"Louisville","state":"KY","dentist_count":13,"latitude":38.188886,"longitude":-85.83137,"cartodb_id":32,"created_at":"2014-10-13T23:05:37Z","updated_at":"2014-10-13T23:05:37Z"}},{"type":"Feature","geometry":{"type":"Point","coordinates":[-85.739,38.21632]},"properties":{"zipcode":40217,"city":"Louisville","state":"KY","dentist_count":5,"latitude":38.21632,"longitude":-85.739,"cartodb_id":33,"created_at":"2014-10-13T23:05:37Z","updated_at":"2014-10-13T23:05:37Z"}},{"type":"Feature","geometry":{"type":"Point","coordinates":[-85.65733,38.193769]},"properties":{"zipcode":40218,"city":"Louisville","state":"KY","dentist_count":9,"latitude":38.193769,"longitude":-85.65733,"cartodb_id":34,"created_at":"2014-10-13T23:05:37Z","updated_at":"2014-10-13T23:05:37Z"}},{"type":"Feature","geometry":{"type":"Point","coordinates":[-85.68218,38.141638]},"properties":{"zipcode":40219,"city":"Louisville","state":"KY","dentist_count":8,"latitude":38.141638,"longitude":-85.68218,"cartodb_id":35,"created_at":"2014-10-13T23:05:37Z","updated_at":"2014-10-13T23:05:37Z"}},{"type":"Feature","geometry":{"type":"Point","coordinates":[-85.62207,38.214982]},"properties":{"zipcode":40220,"city":"Louisville","state":"KY","dentist_count":10,"latitude":38.214982,"longitude":-85.62207,"cartodb_id":36,"created_at":"2014-10-13T23:05:37Z","updated_at":"2014-10-13T23:05:37Z"}},{"type":"Feature","geometry":{"type":"Point","coordinates":[-85.61319,38.26507]},"properties":{"zipcode":40222,"city":"Louisville","state":"KY","dentist_count":12,"latitude":38.26507,"longitude":-85.61319,"cartodb_id":37,"created_at":"2014-10-13T23:05:37Z","updated_at":"2014-10-13T23:05:37Z"}},{"type":"Feature","geometry":{"type":"Point","coordinates":[-85.55574,38.258941]},"properties":{"zipcode":40223,"city":"Louisville","state":"KY","dentist_count":9,"latitude":38.258941,"longitude":-85.55574,"cartodb_id":38,"created_at":"2014-10-13T23:05:37Z","updated_at":"2014-10-13T23:05:37Z"}},{"type":"Feature","geometry":{"type":"Point","coordinates":[-85.62741,38.137586]},"properties":{"zipcode":40228,"city":"Louisville","state":"KY","dentist_count":1,"latitude":38.137586,"longitude":-85.62741,"cartodb_id":39,"created_at":"2014-10-13T23:05:37Z","updated_at":"2014-10-13T23:05:37Z"}},{"type":"Feature","geometry":{"type":"Point","coordinates":[-85.66979,38.085601]},"properties":{"zipcode":40229,"city":"Louisville","state":"KY","dentist_count":6,"latitude":38.085601,"longitude":-85.66979,"cartodb_id":40,"created_at":"2014-10-13T23:05:37Z","updated_at":"2014-10-13T23:05:37Z"}},{"type":"Feature","geometry":{"type":"Point","coordinates":[-85.58424,38.305636]},"properties":{"zipcode":40241,"city":"Louisville","state":"KY","dentist_count":4,"latitude":38.305636,"longitude":-85.58424,"cartodb_id":41,"created_at":"2014-10-13T23:05:37Z","updated_at":"2014-10-13T23:05:37Z"}},{"type":"Feature","geometry":{"type":"Point","coordinates":[-85.59037,38.279059]},"properties":{"zipcode":40242,"city":"Louisville","state":"KY","dentist_count":5,"latitude":38.279059,"longitude":-85.59037,"cartodb_id":42,"created_at":"2014-10-13T23:05:37Z","updated_at":"2014-10-13T23:05:37Z"}},{"type":"Feature","geometry":{"type":"Point","coordinates":[-85.53657,38.237155]},"properties":{"zipcode":40243,"city":"Louisville","state":"KY","dentist_count":7,"latitude":38.237155,"longitude":-85.53657,"cartodb_id":43,"created_at":"2014-10-13T23:05:37Z","updated_at":"2014-10-13T23:05:37Z"}},{"type":"Feature","geometry":{"type":"Point","coordinates":[-85.48322,38.270855]},"properties":{"zipcode":40245,"city":"Louisville","state":"KY","dentist_count":4,"latitude":38.270855,"longitude":-85.48322,"cartodb_id":44,"created_at":"2014-10-13T23:05:37Z","updated_at":"2014-10-13T23:05:37Z"}},{"type":"Feature","geometry":{"type":"Point","coordinates":[-85.86375,38.141719]},"properties":{"zipcode":40258,"city":"Louisville","state":"KY","dentist_count":4,"latitude":38.141719,"longitude":-85.86375,"cartodb_id":45,"created_at":"2014-10-13T23:05:37Z","updated_at":"2014-10-13T23:05:37Z"}},{"type":"Feature","geometry":{"type":"Point","coordinates":[-85.85994,38.096056]},"properties":{"zipcode":40272,"city":"Louisville","state":"KY","dentist_count":2,"latitude":38.096056,"longitude":-85.85994,"cartodb_id":46,"created_at":"2014-10-13T23:05:37Z","updated_at":"2014-10-13T23:05:37Z"}},{"type":"Feature","geometry":{"type":"Point","coordinates":[-85.59169,38.147232]},"properties":{"zipcode":40291,"city":"Louisville","state":"KY","dentist_count":3,"latitude":38.147232,"longitude":-85.59169,"cartodb_id":47,"created_at":"2014-10-13T23:05:37Z","updated_at":"2014-10-13T23:05:37Z"}},{"type":"Feature","geometry":{"type":"Point","coordinates":[-85.676819,38.188962]},"properties":{"zipcode":40292,"city":"Louisville","state":"KY","dentist_count":4,"latitude":38.188962,"longitude":-85.676819,"cartodb_id":48,"created_at":"2014-10-13T23:05:37Z","updated_at":"2014-10-13T23:05:37Z"}},{"type":"Feature","geometry":{"type":"Point","coordinates":[-85.55348,38.190568]},"properties":{"zipcode":40299,"city":"Louisville","state":"KY","dentist_count":1,"latitude":38.190568,"longitude":-85.55348,"cartodb_id":49,"created_at":"2014-10-13T23:05:37Z","updated_at":"2014-10-13T23:05:37Z"}},{"type":"Feature","geometry":{"type":"Point","coordinates":[-85.55348,38.190568]},"properties":{"zipcode":40299,"city":"Louisville","state":"KY","dentist_count":10,"latitude":38.190568,"longitude":-85.55348,"cartodb_id":50,"created_at":"2014-10-13T23:05:37Z","updated_at":"2014-10-13T23:05:37Z"}},{"type":"Feature","geometry":{"type":"Point","coordinates":[-84.55465,38.221179]},"properties":{"zipcode":40324,"city":"Georgetown","state":"KY","dentist_count":7,"latitude":38.221179,"longitude":-84.55465,"cartodb_id":51,"created_at":"2014-10-13T23:05:37Z","updated_at":"2014-10-13T23:05:37Z"}},{"type":"Feature","geometry":{"type":"Point","coordinates":[-84.85812,37.773923]},"properties":{"zipcode":40330,"city":"Harrodsburg","state":"KY","dentist_count":4,"latitude":37.773923,"longitude":-84.85812,"cartodb_id":52,"created_at":"2014-10-13T23:05:37Z","updated_at":"2014-10-13T23:05:37Z"}},{"type":"Feature","geometry":{"type":"Point","coordinates":[-83.9771,37.694764]},"properties":{"zipcode":40336,"city":"Irvine","state":"KY","dentist_count":2,"latitude":37.694764,"longitude":-83.9771,"cartodb_id":53,"created_at":"2014-10-13T23:05:37Z","updated_at":"2014-10-13T23:05:37Z"}},{"type":"Feature","geometry":{"type":"Point","coordinates":[-84.94075,38.012479]},"properties":{"zipcode":40342,"city":"Lawrenceburg","state":"KY","dentist_count":1,"latitude":38.012479,"longitude":-84.94075,"cartodb_id":54,"created_at":"2014-10-13T23:05:37Z","updated_at":"2014-10-13T23:05:37Z"}},{"type":"Feature","geometry":{"type":"Point","coordinates":[-83.4321,38.19056]},"properties":{"zipcode":40351,"city":"Morehead","state":"KY","dentist_count":5,"latitude":38.19056,"longitude":-83.4321,"cartodb_id":55,"created_at":"2014-10-13T23:05:37Z","updated_at":"2014-10-13T23:05:37Z"}},{"type":"Feature","geometry":{"type":"Point","coordinates":[-83.92964,38.061248]},"properties":{"zipcode":40353,"city":"Mount Sterling","state":"KY","dentist_count":3,"latitude":38.061248,"longitude":-83.92964,"cartodb_id":56,"created_at":"2014-10-13T23:05:37Z","updated_at":"2014-10-13T23:05:37Z"}},{"type":"Feature","geometry":{"type":"Point","coordinates":[-83.92964,38.061248]},"properties":{"zipcode":40353,"city":"Mount Sterling","state":"KY","dentist_count":2,"latitude":38.061248,"longitude":-83.92964,"cartodb_id":57,"created_at":"2014-10-13T23:05:37Z","updated_at":"2014-10-13T23:05:37Z"}},{"type":"Feature","geometry":{"type":"Point","coordinates":[-84.571,37.883886]},"properties":{"zipcode":40356,"city":"Nicholasville","state":"KY","dentist_count":3,"latitude":37.883886,"longitude":-84.571,"cartodb_id":58,"created_at":"2014-10-13T23:05:37Z","updated_at":"2014-10-13T23:05:37Z"}},{"type":"Feature","geometry":{"type":"Point","coordinates":[-84.81023,38.467809]},"properties":{"zipcode":40359,"city":"Owenton","state":"KY","dentist_count":1,"latitude":38.467809,"longitude":-84.81023,"cartodb_id":59,"created_at":"2014-10-13T23:05:37Z","updated_at":"2014-10-13T23:05:37Z"}},{"type":"Feature","geometry":{"type":"Point","coordinates":[-83.76603,38.152302]},"properties":{"zipcode":40360,"city":"Owingsville","state":"KY","dentist_count":1,"latitude":38.152302,"longitude":-83.76603,"cartodb_id":60,"created_at":"2014-10-13T23:05:37Z","updated_at":"2014-10-13T23:05:37Z"}},{"type":"Feature","geometry":{"type":"Point","coordinates":[-84.23646,38.212471]},"properties":{"zipcode":40361,"city":"Paris","state":"KY","dentist_count":2,"latitude":38.212471,"longitude":-84.23646,"cartodb_id":61,"created_at":"2014-10-13T23:05:37Z","updated_at":"2014-10-13T23:05:37Z"}},{"type":"Feature","geometry":{"type":"Point","coordinates":[-83.8099,37.838747]},"properties":{"zipcode":40380,"city":"Stanton","state":"KY","dentist_count":1,"latitude":37.838747,"longitude":-83.8099,"cartodb_id":62,"created_at":"2014-10-13T23:05:37Z","updated_at":"2014-10-13T23:05:37Z"}},{"type":"Feature","geometry":{"type":"Point","coordinates":[-84.73189,38.042639]},"properties":{"zipcode":40383,"city":"Versailles","state":"KY","dentist_count":6,"latitude":38.042639,"longitude":-84.73189,"cartodb_id":63,"created_at":"2014-10-13T23:05:37Z","updated_at":"2014-10-13T23:05:37Z"}},{"type":"Feature","geometry":{"type":"Point","coordinates":[-84.66069,37.85743]},"properties":{"zipcode":40390,"city":"Wilmore","state":"KY","dentist_count":1,"latitude":37.85743,"longitude":-84.66069,"cartodb_id":64,"created_at":"2014-10-13T23:05:37Z","updated_at":"2014-10-13T23:05:37Z"}},{"type":"Feature","geometry":{"type":"Point","coordinates":[-84.17023,37.98223]},"properties":{"zipcode":40391,"city":"Winchester","state":"KY","dentist_count":11,"latitude":37.98223,"longitude":-84.17023,"cartodb_id":65,"created_at":"2014-10-13T23:05:37Z","updated_at":"2014-10-13T23:05:37Z"}},{"type":"Feature","geometry":{"type":"Point","coordinates":[-84.27767,37.575568]},"properties":{"zipcode":40403,"city":"Berea","state":"KY","dentist_count":5,"latitude":37.575568,"longitude":-84.27767,"cartodb_id":66,"created_at":"2014-10-13T23:05:37Z","updated_at":"2014-10-13T23:05:37Z"}},{"type":"Feature","geometry":{"type":"Point","coordinates":[-84.78862,37.644426]},"properties":{"zipcode":40422,"city":"Danville","state":"KY","dentist_count":3,"latitude":37.644426,"longitude":-84.78862,"cartodb_id":67,"created_at":"2014-10-13T23:05:37Z","updated_at":"2014-10-13T23:05:37Z"}},{"type":"Feature","geometry":{"type":"Point","coordinates":[-84.33233,37.36766]},"properties":{"zipcode":40456,"city":"Mount Vernon","state":"KY","dentist_count":1,"latitude":37.36766,"longitude":-84.33233,"cartodb_id":68,"created_at":"2014-10-13T23:05:37Z","updated_at":"2014-10-13T23:05:37Z"}},{"type":"Feature","geometry":{"type":"Point","coordinates":[-84.28433,37.745999]},"properties":{"zipcode":40475,"city":"Richmond","state":"KY","dentist_count":9,"latitude":37.745999,"longitude":-84.28433,"cartodb_id":69,"created_at":"2014-10-13T23:05:37Z","updated_at":"2014-10-13T23:05:37Z"}},{"type":"Feature","geometry":{"type":"Point","coordinates":[-84.6735,37.520836]},"properties":{"zipcode":40484,"city":"Stanford","state":"KY","dentist_count":1,"latitude":37.520836,"longitude":-84.6735,"cartodb_id":70,"created_at":"2014-10-13T23:05:37Z","updated_at":"2014-10-13T23:05:37Z"}},{"type":"Feature","geometry":{"type":"Point","coordinates":[-84.4859,38.017219]},"properties":{"zipcode":40502,"city":"Lexington","state":"KY","dentist_count":9,"latitude":38.017219,"longitude":-84.4859,"cartodb_id":71,"created_at":"2014-10-13T23:05:37Z","updated_at":"2014-10-13T23:05:37Z"}},{"type":"Feature","geometry":{"type":"Point","coordinates":[-84.53452,38.007898]},"properties":{"zipcode":40503,"city":"Lexington","state":"KY","dentist_count":17,"latitude":38.007898,"longitude":-84.53452,"cartodb_id":72,"created_at":"2014-10-13T23:05:37Z","updated_at":"2014-10-13T23:05:37Z"}},{"type":"Feature","geometry":{"type":"Point","coordinates":[-84.54259,38.039322]},"properties":{"zipcode":40504,"city":"Lexington","state":"KY","dentist_count":7,"latitude":38.039322,"longitude":-84.54259,"cartodb_id":73,"created_at":"2014-10-13T23:05:37Z","updated_at":"2014-10-13T23:05:37Z"}},{"type":"Feature","geometry":{"type":"Point","coordinates":[-84.46109,38.058477]},"properties":{"zipcode":40505,"city":"Lexington","state":"KY","dentist_count":1,"latitude":38.058477,"longitude":-84.46109,"cartodb_id":74,"created_at":"2014-10-13T23:05:37Z","updated_at":"2014-10-13T23:05:37Z"}},{"type":"Feature","geometry":{"type":"Point","coordinates":[-84.49627,38.047408]},"properties":{"zipcode":40507,"city":"Lexington","state":"KY","dentist_count":1,"latitude":38.047408,"longitude":-84.49627,"cartodb_id":75,"created_at":"2014-10-13T23:05:37Z","updated_at":"2014-10-13T23:05:37Z"}},{"type":"Feature","geometry":{"type":"Point","coordinates":[-84.49336,38.051727]},"properties":{"zipcode":40508,"city":"Lexington","state":"KY","dentist_count":5,"latitude":38.051727,"longitude":-84.49336,"cartodb_id":76,"created_at":"2014-10-13T23:05:37Z","updated_at":"2014-10-13T23:05:37Z"}},{"type":"Feature","geometry":{"type":"Point","coordinates":[-84.40954,38.005199]},"properties":{"zipcode":40509,"city":"Lexington","state":"KY","dentist_count":14,"latitude":38.005199,"longitude":-84.40954,"cartodb_id":77,"created_at":"2014-10-13T23:05:37Z","updated_at":"2014-10-13T23:05:37Z"}},{"type":"Feature","geometry":{"type":"Point","coordinates":[-84.50775,38.105283]},"properties":{"zipcode":40511,"city":"Lexington","state":"KY","dentist_count":4,"latitude":38.105283,"longitude":-84.50775,"cartodb_id":78,"created_at":"2014-10-13T23:05:37Z","updated_at":"2014-10-13T23:05:37Z"}},{"type":"Feature","geometry":{"type":"Point","coordinates":[-84.58619,38.010247]},"properties":{"zipcode":40513,"city":"Lexington","state":"KY","dentist_count":5,"latitude":38.010247,"longitude":-84.58619,"cartodb_id":79,"created_at":"2014-10-13T23:05:37Z","updated_at":"2014-10-13T23:05:37Z"}},{"type":"Feature","geometry":{"type":"Point","coordinates":[-84.56691,37.984907]},"properties":{"zipcode":40514,"city":"Lexington","state":"KY","dentist_count":2,"latitude":37.984907,"longitude":-84.56691,"cartodb_id":80,"created_at":"2014-10-13T23:05:37Z","updated_at":"2014-10-13T23:05:37Z"}},{"type":"Feature","geometry":{"type":"Point","coordinates":[-84.48874,37.985128]},"properties":{"zipcode":40517,"city":"Lexington","state":"KY","dentist_count":11,"latitude":37.985128,"longitude":-84.48874,"cartodb_id":81,"created_at":"2014-10-13T23:05:37Z","updated_at":"2014-10-13T23:05:37Z"}},{"type":"Feature","geometry":{"type":"Point","coordinates":[-84.508361,38.032075]},"properties":{"zipcode":40536,"city":"Lexington","state":"KY","dentist_count":11,"latitude":38.032075,"longitude":-84.508361,"cartodb_id":82,"created_at":"2014-10-13T23:05:37Z","updated_at":"2014-10-13T23:05:37Z"}},{"type":"Feature","geometry":{"type":"Point","coordinates":[-84.86935,38.201649]},"properties":{"zipcode":40601,"city":"Frankfort","state":"KY","dentist_count":12,"latitude":38.201649,"longitude":-84.86935,"cartodb_id":83,"created_at":"2014-10-13T23:05:37Z","updated_at":"2014-10-13T23:05:37Z"}},{"type":"Feature","geometry":{"type":"Point","coordinates":[-84.10685,36.942035]},"properties":{"zipcode":40701,"city":"Corbin","state":"KY","dentist_count":7,"latitude":36.942035,"longitude":-84.10685,"cartodb_id":84,"created_at":"2014-10-13T23:05:37Z","updated_at":"2014-10-13T23:05:37Z"}},{"type":"Feature","geometry":{"type":"Point","coordinates":[-84.07839,37.143828]},"properties":{"zipcode":40741,"city":"London","state":"KY","dentist_count":8,"latitude":37.143828,"longitude":-84.07839,"cartodb_id":85,"created_at":"2014-10-13T23:05:37Z","updated_at":"2014-10-13T23:05:37Z"}},{"type":"Feature","geometry":{"type":"Point","coordinates":[-84.1508,36.709853]},"properties":{"zipcode":40769,"city":"Williamsburg","state":"KY","dentist_count":1,"latitude":36.709853,"longitude":-84.1508,"cartodb_id":86,"created_at":"2014-10-13T23:05:37Z","updated_at":"2014-10-13T23:05:37Z"}},{"type":"Feature","geometry":{"type":"Point","coordinates":[-83.31856,36.828285]},"properties":{"zipcode":40831,"city":"Harlan","state":"KY","dentist_count":3,"latitude":36.828285,"longitude":-83.31856,"cartodb_id":87,"created_at":"2014-10-13T23:05:37Z","updated_at":"2014-10-13T23:05:37Z"}},{"type":"Feature","geometry":{"type":"Point","coordinates":[-83.88501,36.853913]},"properties":{"zipcode":40906,"city":"Barbourville","state":"KY","dentist_count":3,"latitude":36.853913,"longitude":-83.88501,"cartodb_id":88,"created_at":"2014-10-13T23:05:37Z","updated_at":"2014-10-13T23:05:37Z"}},{"type":"Feature","geometry":{"type":"Point","coordinates":[-83.76674,37.164346]},"properties":{"zipcode":40962,"city":"Manchester","state":"KY","dentist_count":1,"latitude":37.164346,"longitude":-83.76674,"cartodb_id":89,"created_at":"2014-10-13T23:05:37Z","updated_at":"2014-10-13T23:05:37Z"}},{"type":"Feature","geometry":{"type":"Point","coordinates":[-83.72186,36.617181]},"properties":{"zipcode":40965,"city":"Middlesboro","state":"KY","dentist_count":2,"latitude":36.617181,"longitude":-83.72186,"cartodb_id":90,"created_at":"2014-10-13T23:05:37Z","updated_at":"2014-10-13T23:05:37Z"}},{"type":"Feature","geometry":{"type":"Point","coordinates":[-83.72023,36.750028]},"properties":{"zipcode":40977,"city":"Pineville","state":"KY","dentist_count":3,"latitude":36.750028,"longitude":-83.72023,"cartodb_id":91,"created_at":"2014-10-13T23:05:37Z","updated_at":"2014-10-13T23:05:37Z"}},{"type":"Feature","geometry":{"type":"Point","coordinates":[-84.38652,38.946893]},"properties":{"zipcode":41001,"city":"Alexandria","state":"KY","dentist_count":1,"latitude":38.946893,"longitude":-84.38652,"cartodb_id":92,"created_at":"2014-10-13T23:05:37Z","updated_at":"2014-10-13T23:05:37Z"}},{"type":"Feature","geometry":{"type":"Point","coordinates":[-84.74158,39.020466]},"properties":{"zipcode":41005,"city":"Burlington","state":"KY","dentist_count":5,"latitude":39.020466,"longitude":-84.74158,"cartodb_id":93,"created_at":"2014-10-13T23:05:37Z","updated_at":"2014-10-13T23:05:37Z"}},{"type":"Feature","geometry":{"type":"Point","coordinates":[-85.16803,38.663328]},"properties":{"zipcode":41008,"city":"Carrollton","state":"KY","dentist_count":1,"latitude":38.663328,"longitude":-85.16803,"cartodb_id":94,"created_at":"2014-10-13T23:05:37Z","updated_at":"2014-10-13T23:05:37Z"}},{"type":"Feature","geometry":{"type":"Point","coordinates":[-84.52064,39.0752]},"properties":{"zipcode":41011,"city":"Covington","state":"KY","dentist_count":2,"latitude":39.0752,"longitude":-84.52064,"cartodb_id":95,"created_at":"2014-10-13T23:05:37Z","updated_at":"2014-10-13T23:05:37Z"}},{"type":"Feature","geometry":{"type":"Point","coordinates":[-84.52064,39.0752]},"properties":{"zipcode":41011,"city":"Covington","state":"KY","dentist_count":4,"latitude":39.0752,"longitude":-84.52064,"cartodb_id":96,"created_at":"2014-10-13T23:05:37Z","updated_at":"2014-10-13T23:05:37Z"}},{"type":"Feature","geometry":{"type":"Point","coordinates":[-84.49419,39.013062]},"properties":{"zipcode":41015,"city":"Latonia","state":"KY","dentist_count":2,"latitude":39.013062,"longitude":-84.49419,"cartodb_id":97,"created_at":"2014-10-13T23:05:37Z","updated_at":"2014-10-13T23:05:37Z"}},{"type":"Feature","geometry":{"type":"Point","coordinates":[-84.56801,39.036361]},"properties":{"zipcode":41017,"city":"Ft Mitchell","state":"KY","dentist_count":1,"latitude":39.036361,"longitude":-84.56801,"cartodb_id":98,"created_at":"2014-10-13T23:05:37Z","updated_at":"2014-10-13T23:05:37Z"}},{"type":"Feature","geometry":{"type":"Point","coordinates":[-84.56801,39.036361]},"properties":{"zipcode":41017,"city":"Ft Mitchell","state":"KY","dentist_count":3,"latitude":39.036361,"longitude":-84.56801,"cartodb_id":99,"created_at":"2014-10-13T23:05:37Z","updated_at":"2014-10-13T23:05:37Z"}},{"type":"Feature","geometry":{"type":"Point","coordinates":[-84.56801,39.036361]},"properties":{"zipcode":41017,"city":"Ft Mitchell","state":"KY","dentist_count":6,"latitude":39.036361,"longitude":-84.56801,"cartodb_id":100,"created_at":"2014-10-13T23:05:37Z","updated_at":"2014-10-13T23:05:37Z"}},{"type":"Feature","geometry":{"type":"Point","coordinates":[-84.56801,39.036361]},"properties":{"zipcode":41017,"city":"Ft Mitchell","state":"KY","dentist_count":4,"latitude":39.036361,"longitude":-84.56801,"cartodb_id":101,"created_at":"2014-10-13T23:05:37Z","updated_at":"2014-10-13T23:05:37Z"}},{"type":"Feature","geometry":{"type":"Point","coordinates":[-84.56801,39.036361]},"properties":{"zipcode":41017,"city":"Ft Mitchell","state":"KY","dentist_count":2,"latitude":39.036361,"longitude":-84.56801,"cartodb_id":102,"created_at":"2014-10-13T23:05:37Z","updated_at":"2014-10-13T23:05:37Z"}},{"type":"Feature","geometry":{"type":"Point","coordinates":[-84.56801,39.036361]},"properties":{"zipcode":41017,"city":"Ft Mitchell","state":"KY","dentist_count":3,"latitude":39.036361,"longitude":-84.56801,"cartodb_id":103,"created_at":"2014-10-13T23:05:37Z","updated_at":"2014-10-13T23:05:37Z"}},{"type":"Feature","geometry":{"type":"Point","coordinates":[-84.60229,39.013755]},"properties":{"zipcode":41018,"city":"Erlanger","state":"KY","dentist_count":3,"latitude":39.013755,"longitude":-84.60229,"cartodb_id":104,"created_at":"2014-10-13T23:05:37Z","updated_at":"2014-10-13T23:05:37Z"}},{"type":"Feature","geometry":{"type":"Point","coordinates":[-84.602,38.788439]},"properties":{"zipcode":41030,"city":"Crittenden","state":"KY","dentist_count":1,"latitude":38.788439,"longitude":-84.602,"cartodb_id":105,"created_at":"2014-10-13T23:05:37Z","updated_at":"2014-10-13T23:05:37Z"}},{"type":"Feature","geometry":{"type":"Point","coordinates":[-84.602,38.788439]},"properties":{"zipcode":41030,"city":"Crittenden","state":"KY","dentist_count":1,"latitude":38.788439,"longitude":-84.602,"cartodb_id":106,"created_at":"2014-10-13T23:05:37Z","updated_at":"2014-10-13T23:05:37Z"}},{"type":"Feature","geometry":{"type":"Point","coordinates":[-84.2939,38.397678]},"properties":{"zipcode":41031,"city":"Cynthiana","state":"KY","dentist_count":1,"latitude":38.397678,"longitude":-84.2939,"cartodb_id":107,"created_at":"2014-10-13T23:05:37Z","updated_at":"2014-10-13T23:05:37Z"}},{"type":"Feature","geometry":{"type":"Point","coordinates":[-84.2939,38.397678]},"properties":{"zipcode":41031,"city":"Cynthiana","state":"KY","dentist_count":2,"latitude":38.397678,"longitude":-84.2939,"cartodb_id":108,"created_at":"2014-10-13T23:05:37Z","updated_at":"2014-10-13T23:05:37Z"}},{"type":"Feature","geometry":{"type":"Point","coordinates":[-84.6418,38.691006]},"properties":{"zipcode":41035,"city":"Dry Ridge","state":"KY","dentist_count":4,"latitude":38.691006,"longitude":-84.6418,"cartodb_id":109,"created_at":"2014-10-13T23:05:37Z","updated_at":"2014-10-13T23:05:37Z"}},{"type":"Feature","geometry":{"type":"Point","coordinates":[-84.32811,38.656527]},"properties":{"zipcode":41040,"city":"Falmouth","state":"KY","dentist_count":1,"latitude":38.656527,"longitude":-84.32811,"cartodb_id":110,"created_at":"2014-10-13T23:05:37Z","updated_at":"2014-10-13T23:05:37Z"}},{"type":"Feature","geometry":{"type":"Point","coordinates":[-83.72497,38.418131]},"properties":{"zipcode":41041,"city":"Flemingsburg","state":"KY","dentist_count":4,"latitude":38.418131,"longitude":-83.72497,"cartodb_id":111,"created_at":"2014-10-13T23:05:37Z","updated_at":"2014-10-13T23:05:37Z"}},{"type":"Feature","geometry":{"type":"Point","coordinates":[-84.64401,38.983853]},"properties":{"zipcode":41042,"city":"Florence","state":"KY","dentist_count":17,"latitude":38.983853,"longitude":-84.64401,"cartodb_id":112,"created_at":"2014-10-13T23:05:37Z","updated_at":"2014-10-13T23:05:37Z"}},{"type":"Feature","geometry":{"type":"Point","coordinates":[-84.68754,39.0805]},"properties":{"zipcode":41048,"city":"Hebron","state":"KY","dentist_count":3,"latitude":39.0805,"longitude":-84.68754,"cartodb_id":113,"created_at":"2014-10-13T23:05:37Z","updated_at":"2014-10-13T23:05:37Z"}},{"type":"Feature","geometry":{"type":"Point","coordinates":[-84.54902,38.941953]},"properties":{"zipcode":41051,"city":"Independence","state":"KY","dentist_count":1,"latitude":38.941953,"longitude":-84.54902,"cartodb_id":114,"created_at":"2014-10-13T23:05:37Z","updated_at":"2014-10-13T23:05:37Z"}},{"type":"Feature","geometry":{"type":"Point","coordinates":[-83.76561,38.624534]},"properties":{"zipcode":41056,"city":"Maysville","state":"KY","dentist_count":3,"latitude":38.624534,"longitude":-83.76561,"cartodb_id":115,"created_at":"2014-10-13T23:05:37Z","updated_at":"2014-10-13T23:05:37Z"}},{"type":"Feature","geometry":{"type":"Point","coordinates":[-84.48681,39.08347]},"properties":{"zipcode":41071,"city":"Newport","state":"KY","dentist_count":3,"latitude":39.08347,"longitude":-84.48681,"cartodb_id":116,"created_at":"2014-10-13T23:05:37Z","updated_at":"2014-10-13T23:05:37Z"}},{"type":"Feature","geometry":{"type":"Point","coordinates":[-84.48681,39.08347]},"properties":{"zipcode":41071,"city":"Newport","state":"KY","dentist_count":1,"latitude":39.08347,"longitude":-84.48681,"cartodb_id":117,"created_at":"2014-10-13T23:05:37Z","updated_at":"2014-10-13T23:05:37Z"}},{"type":"Feature","geometry":{"type":"Point","coordinates":[-84.47987,39.103011]},"properties":{"zipcode":41073,"city":"Bellevue","state":"KY","dentist_count":1,"latitude":39.103011,"longitude":-84.47987,"cartodb_id":118,"created_at":"2014-10-13T23:05:37Z","updated_at":"2014-10-13T23:05:37Z"}},{"type":"Feature","geometry":{"type":"Point","coordinates":[-84.45127,39.076011]},"properties":{"zipcode":41075,"city":"Fort Thomas","state":"KY","dentist_count":7,"latitude":39.076011,"longitude":-84.45127,"cartodb_id":119,"created_at":"2014-10-13T23:05:37Z","updated_at":"2014-10-13T23:05:37Z"}},{"type":"Feature","geometry":{"type":"Point","coordinates":[-84.44204,39.019185]},"properties":{"zipcode":41076,"city":"Newport","state":"KY","dentist_count":1,"latitude":39.019185,"longitude":-84.44204,"cartodb_id":120,"created_at":"2014-10-13T23:05:37Z","updated_at":"2014-10-13T23:05:37Z"}},{"type":"Feature","geometry":{"type":"Point","coordinates":[-84.44204,39.019185]},"properties":{"zipcode":41076,"city":"Newport","state":"KY","dentist_count":4,"latitude":39.019185,"longitude":-84.44204,"cartodb_id":121,"created_at":"2014-10-13T23:05:37Z","updated_at":"2014-10-13T23:05:37Z"}},{"type":"Feature","geometry":{"type":"Point","coordinates":[-84.71603,38.930285]},"properties":{"zipcode":41091,"city":"Union","state":"KY","dentist_count":4,"latitude":38.930285,"longitude":-84.71603,"cartodb_id":122,"created_at":"2014-10-13T23:05:37Z","updated_at":"2014-10-13T23:05:37Z"}},{"type":"Feature","geometry":{"type":"Point","coordinates":[-84.62558,38.87872]},"properties":{"zipcode":41094,"city":"Walton","state":"KY","dentist_count":2,"latitude":38.87872,"longitude":-84.62558,"cartodb_id":123,"created_at":"2014-10-13T23:05:37Z","updated_at":"2014-10-13T23:05:37Z"}},{"type":"Feature","geometry":{"type":"Point","coordinates":[-82.64532,38.473961]},"properties":{"zipcode":41101,"city":"Ashland","state":"KY","dentist_count":16,"latitude":38.473961,"longitude":-82.64532,"cartodb_id":124,"created_at":"2014-10-13T23:05:37Z","updated_at":"2014-10-13T23:05:37Z"}},{"type":"Feature","geometry":{"type":"Point","coordinates":[-82.6932,38.439526]},"properties":{"zipcode":41102,"city":"Ashland","state":"KY","dentist_count":1,"latitude":38.439526,"longitude":-82.6932,"cartodb_id":125,"created_at":"2014-10-13T23:05:37Z","updated_at":"2014-10-13T23:05:37Z"}},{"type":"Feature","geometry":{"type":"Point","coordinates":[-82.72175,38.52032]},"properties":{"zipcode":41139,"city":"Flatwoods","state":"KY","dentist_count":2,"latitude":38.52032,"longitude":-82.72175,"cartodb_id":126,"created_at":"2014-10-13T23:05:37Z","updated_at":"2014-10-13T23:05:37Z"}},{"type":"Feature","geometry":{"type":"Point","coordinates":[-82.86514,38.552472]},"properties":{"zipcode":41144,"city":"Greenup","state":"KY","dentist_count":1,"latitude":38.552472,"longitude":-82.86514,"cartodb_id":127,"created_at":"2014-10-13T23:05:37Z","updated_at":"2014-10-13T23:05:37Z"}},{"type":"Feature","geometry":{"type":"Point","coordinates":[-83.05005,38.061324]},"properties":{"zipcode":41149,"city":"Isonville","state":"KY","dentist_count":1,"latitude":38.061324,"longitude":-83.05005,"cartodb_id":128,"created_at":"2014-10-13T23:05:37Z","updated_at":"2014-10-13T23:05:37Z"}},{"type":"Feature","geometry":{"type":"Point","coordinates":[-82.70856,38.538456]},"properties":{"zipcode":41169,"city":"Russell","state":"KY","dentist_count":1,"latitude":38.538456,"longitude":-82.70856,"cartodb_id":129,"created_at":"2014-10-13T23:05:37Z","updated_at":"2014-10-13T23:05:37Z"}},{"type":"Feature","geometry":{"type":"Point","coordinates":[-82.9686,38.676695]},"properties":{"zipcode":41175,"city":"South Shore","state":"KY","dentist_count":1,"latitude":38.676695,"longitude":-82.9686,"cartodb_id":130,"created_at":"2014-10-13T23:05:37Z","updated_at":"2014-10-13T23:05:37Z"}},{"type":"Feature","geometry":{"type":"Point","coordinates":[-82.64062,38.071237]},"properties":{"zipcode":41230,"city":"Louisa","state":"KY","dentist_count":1,"latitude":38.071237,"longitude":-82.64062,"cartodb_id":131,"created_at":"2014-10-13T23:05:37Z","updated_at":"2014-10-13T23:05:37Z"}},{"type":"Feature","geometry":{"type":"Point","coordinates":[-82.78167,37.823275]},"properties":{"zipcode":41240,"city":"Paintsville","state":"KY","dentist_count":2,"latitude":37.823275,"longitude":-82.78167,"cartodb_id":132,"created_at":"2014-10-13T23:05:37Z","updated_at":"2014-10-13T23:05:37Z"}},{"type":"Feature","geometry":{"type":"Point","coordinates":[-83.34547,37.533559]},"properties":{"zipcode":41339,"city":"Jackson","state":"KY","dentist_count":1,"latitude":37.533559,"longitude":-83.34547,"cartodb_id":133,"created_at":"2014-10-13T23:05:37Z","updated_at":"2014-10-13T23:05:37Z"}},{"type":"Feature","geometry":{"type":"Point","coordinates":[-83.34547,37.533559]},"properties":{"zipcode":41339,"city":"Jackson","state":"KY","dentist_count":1,"latitude":37.533559,"longitude":-83.34547,"cartodb_id":134,"created_at":"2014-10-13T23:05:37Z","updated_at":"2014-10-13T23:05:37Z"}},{"type":"Feature","geometry":{"type":"Point","coordinates":[-83.08652,37.736751]},"properties":{"zipcode":41465,"city":"Salyersville","state":"KY","dentist_count":3,"latitude":37.736751,"longitude":-83.08652,"cartodb_id":135,"created_at":"2014-10-13T23:05:37Z","updated_at":"2014-10-13T23:05:37Z"}},{"type":"Feature","geometry":{"type":"Point","coordinates":[-82.5189,37.478169]},"properties":{"zipcode":41501,"city":"Pikeville","state":"KY","dentist_count":9,"latitude":37.478169,"longitude":-82.5189,"cartodb_id":136,"created_at":"2014-10-13T23:05:37Z","updated_at":"2014-10-13T23:05:37Z"}},{"type":"Feature","geometry":{"type":"Point","coordinates":[-82.28465,37.67059]},"properties":{"zipcode":41503,"city":"South Williamson","state":"KY","dentist_count":3,"latitude":37.67059,"longitude":-82.28465,"cartodb_id":137,"created_at":"2014-10-13T23:05:37Z","updated_at":"2014-10-13T23:05:37Z"}},{"type":"Feature","geometry":{"type":"Point","coordinates":[-82.64922,37.479754]},"properties":{"zipcode":41631,"city":"Grethel","state":"KY","dentist_count":3,"latitude":37.479754,"longitude":-82.64922,"cartodb_id":138,"created_at":"2014-10-13T23:05:37Z","updated_at":"2014-10-13T23:05:37Z"}},{"type":"Feature","geometry":{"type":"Point","coordinates":[-82.75937,37.568873]},"properties":{"zipcode":41649,"city":"Martin","state":"KY","dentist_count":1,"latitude":37.568873,"longitude":-82.75937,"cartodb_id":139,"created_at":"2014-10-13T23:05:37Z","updated_at":"2014-10-13T23:05:37Z"}},{"type":"Feature","geometry":{"type":"Point","coordinates":[-82.75876,37.667872]},"properties":{"zipcode":41653,"city":"Prestonsburg","state":"KY","dentist_count":3,"latitude":37.667872,"longitude":-82.75876,"cartodb_id":140,"created_at":"2014-10-13T23:05:37Z","updated_at":"2014-10-13T23:05:37Z"}},{"type":"Feature","geometry":{"type":"Point","coordinates":[-83.19061,37.274854]},"properties":{"zipcode":41701,"city":"Hazard","state":"KY","dentist_count":3,"latitude":37.274854,"longitude":-83.19061,"cartodb_id":141,"created_at":"2014-10-13T23:05:37Z","updated_at":"2014-10-13T23:05:37Z"}},{"type":"Feature","geometry":{"type":"Point","coordinates":[-83.38301,37.17621]},"properties":{"zipcode":41749,"city":"Hyden","state":"KY","dentist_count":1,"latitude":37.17621,"longitude":-83.38301,"cartodb_id":142,"created_at":"2014-10-13T23:05:37Z","updated_at":"2014-10-13T23:05:37Z"}},{"type":"Feature","geometry":{"type":"Point","coordinates":[-82.97212,37.333551]},"properties":{"zipcode":41822,"city":"Hindman","state":"KY","dentist_count":1,"latitude":37.333551,"longitude":-82.97212,"cartodb_id":143,"created_at":"2014-10-13T23:05:37Z","updated_at":"2014-10-13T23:05:37Z"}},{"type":"Feature","geometry":{"type":"Point","coordinates":[-82.71232,37.195448]},"properties":{"zipcode":41840,"city":"Neon","state":"KY","dentist_count":1,"latitude":37.195448,"longitude":-82.71232,"cartodb_id":144,"created_at":"2014-10-13T23:05:37Z","updated_at":"2014-10-13T23:05:37Z"}},{"type":"Feature","geometry":{"type":"Point","coordinates":[-82.83185,37.130559]},"properties":{"zipcode":41858,"city":"Whitesburg","state":"KY","dentist_count":1,"latitude":37.130559,"longitude":-82.83185,"cartodb_id":145,"created_at":"2014-10-13T23:05:37Z","updated_at":"2014-10-13T23:05:37Z"}},{"type":"Feature","geometry":{"type":"Point","coordinates":[-88.65687,37.066543]},"properties":{"zipcode":42001,"city":"Paducah","state":"KY","dentist_count":17,"latitude":37.066543,"longitude":-88.65687,"cartodb_id":146,"created_at":"2014-10-13T23:05:37Z","updated_at":"2014-10-13T23:05:37Z"}},{"type":"Feature","geometry":{"type":"Point","coordinates":[-88.59046,37.044233]},"properties":{"zipcode":42003,"city":"Paducah","state":"KY","dentist_count":4,"latitude":37.044233,"longitude":-88.59046,"cartodb_id":147,"created_at":"2014-10-13T23:05:37Z","updated_at":"2014-10-13T23:05:37Z"}},{"type":"Feature","geometry":{"type":"Point","coordinates":[-88.33515,36.854812]},"properties":{"zipcode":42025,"city":"Benton","state":"KY","dentist_count":5,"latitude":36.854812,"longitude":-88.33515,"cartodb_id":148,"created_at":"2014-10-13T23:05:37Z","updated_at":"2014-10-13T23:05:37Z"}},{"type":"Feature","geometry":{"type":"Point","coordinates":[-88.37269,37.013505]},"properties":{"zipcode":42029,"city":"Calvert City","state":"KY","dentist_count":1,"latitude":37.013505,"longitude":-88.37269,"cartodb_id":149,"created_at":"2014-10-13T23:05:37Z","updated_at":"2014-10-13T23:05:37Z"}},{"type":"Feature","geometry":{"type":"Point","coordinates":[-88.03613,37.051386]},"properties":{"zipcode":42038,"city":"Eddyville","state":"KY","dentist_count":1,"latitude":37.051386,"longitude":-88.03613,"cartodb_id":150,"created_at":"2014-10-13T23:05:37Z","updated_at":"2014-10-13T23:05:37Z"}},{"type":"Feature","geometry":{"type":"Point","coordinates":[-88.89132,36.532059]},"properties":{"zipcode":42041,"city":"Fulton","state":"KY","dentist_count":1,"latitude":36.532059,"longitude":-88.89132,"cartodb_id":151,"created_at":"2014-10-13T23:05:37Z","updated_at":"2014-10-13T23:05:37Z"}},{"type":"Feature","geometry":{"type":"Point","coordinates":[-88.97616,37.08716]},"properties":{"zipcode":42056,"city":"La Center","state":"KY","dentist_count":1,"latitude":37.08716,"longitude":-88.97616,"cartodb_id":152,"created_at":"2014-10-13T23:05:37Z","updated_at":"2014-10-13T23:05:37Z"}},{"type":"Feature","geometry":{"type":"Point","coordinates":[-88.06997,37.331602]},"properties":{"zipcode":42064,"city":"Marion","state":"KY","dentist_count":1,"latitude":37.331602,"longitude":-88.06997,"cartodb_id":153,"created_at":"2014-10-13T23:05:37Z","updated_at":"2014-10-13T23:05:37Z"}},{"type":"Feature","geometry":{"type":"Point","coordinates":[-88.63449,36.733761]},"properties":{"zipcode":42066,"city":"Mayfield","state":"KY","dentist_count":4,"latitude":36.733761,"longitude":-88.63449,"cartodb_id":154,"created_at":"2014-10-13T23:05:37Z","updated_at":"2014-10-13T23:05:37Z"}},{"type":"Feature","geometry":{"type":"Point","coordinates":[-88.75871,36.921462]},"properties":{"zipcode":42069,"city":"Melber","state":"KY","dentist_count":1,"latitude":36.921462,"longitude":-88.75871,"cartodb_id":155,"created_at":"2014-10-13T23:05:37Z","updated_at":"2014-10-13T23:05:37Z"}},{"type":"Feature","geometry":{"type":"Point","coordinates":[-88.28746,36.617443]},"properties":{"zipcode":42071,"city":"Murray","state":"KY","dentist_count":9,"latitude":36.617443,"longitude":-88.28746,"cartodb_id":156,"created_at":"2014-10-13T23:05:37Z","updated_at":"2014-10-13T23:05:37Z"}},{"type":"Feature","geometry":{"type":"Point","coordinates":[-86.46145,37.010643]},"properties":{"zipcode":42101,"city":"Bowling Green","state":"KY","dentist_count":10,"latitude":37.010643,"longitude":-86.46145,"cartodb_id":157,"created_at":"2014-10-13T23:05:37Z","updated_at":"2014-10-13T23:05:37Z"}},{"type":"Feature","geometry":{"type":"Point","coordinates":[-86.38247,36.969761]},"properties":{"zipcode":42103,"city":"Bowling Green","state":"KY","dentist_count":1,"latitude":36.969761,"longitude":-86.38247,"cartodb_id":158,"created_at":"2014-10-13T23:05:37Z","updated_at":"2014-10-13T23:05:37Z"}},{"type":"Feature","geometry":{"type":"Point","coordinates":[-86.44751,36.930527]},"properties":{"zipcode":42104,"city":"Bowling Green","state":"KY","dentist_count":10,"latitude":36.930527,"longitude":-86.44751,"cartodb_id":159,"created_at":"2014-10-13T23:05:37Z","updated_at":"2014-10-13T23:05:37Z"}},{"type":"Feature","geometry":{"type":"Point","coordinates":[-85.58534,36.988613]},"properties":{"zipcode":42129,"city":"Edmonton","state":"KY","dentist_count":2,"latitude":36.988613,"longitude":-85.58534,"cartodb_id":160,"created_at":"2014-10-13T23:05:37Z","updated_at":"2014-10-13T23:05:37Z"}},{"type":"Feature","geometry":{"type":"Point","coordinates":[-86.58202,36.718074]},"properties":{"zipcode":42134,"city":"Franklin","state":"KY","dentist_count":1,"latitude":36.718074,"longitude":-86.58202,"cartodb_id":161,"created_at":"2014-10-13T23:05:37Z","updated_at":"2014-10-13T23:05:37Z"}},{"type":"Feature","geometry":{"type":"Point","coordinates":[-85.91232,36.970776]},"properties":{"zipcode":42141,"city":"Glasgow","state":"KY","dentist_count":7,"latitude":36.970776,"longitude":-85.91232,"cartodb_id":162,"created_at":"2014-10-13T23:05:37Z","updated_at":"2014-10-13T23:05:37Z"}},{"type":"Feature","geometry":{"type":"Point","coordinates":[-85.957797,36.946326]},"properties":{"zipcode":42142,"city":"Glasgow","state":"KY","dentist_count":1,"latitude":36.946326,"longitude":-85.957797,"cartodb_id":163,"created_at":"2014-10-13T23:05:37Z","updated_at":"2014-10-13T23:05:37Z"}},{"type":"Feature","geometry":{"type":"Point","coordinates":[-86.1813,36.767969]},"properties":{"zipcode":42164,"city":"Scottsville","state":"KY","dentist_count":5,"latitude":36.767969,"longitude":-86.1813,"cartodb_id":164,"created_at":"2014-10-13T23:05:37Z","updated_at":"2014-10-13T23:05:37Z"}},{"type":"Feature","geometry":{"type":"Point","coordinates":[-85.67567,36.712179]},"properties":{"zipcode":42167,"city":"Tompkinsville","state":"KY","dentist_count":3,"latitude":36.712179,"longitude":-85.67567,"cartodb_id":165,"created_at":"2014-10-13T23:05:37Z","updated_at":"2014-10-13T23:05:37Z"}},{"type":"Feature","geometry":{"type":"Point","coordinates":[-87.86409,36.846471]},"properties":{"zipcode":42211,"city":"Cadiz","state":"KY","dentist_count":1,"latitude":36.846471,"longitude":-87.86409,"cartodb_id":166,"created_at":"2014-10-13T23:05:37Z","updated_at":"2014-10-13T23:05:37Z"}},{"type":"Feature","geometry":{"type":"Point","coordinates":[-87.48219,37.04413]},"properties":{"zipcode":42217,"city":"Crofton","state":"KY","dentist_count":1,"latitude":37.04413,"longitude":-87.48219,"cartodb_id":167,"created_at":"2014-10-13T23:05:37Z","updated_at":"2014-10-13T23:05:37Z"}},{"type":"Feature","geometry":{"type":"Point","coordinates":[-87.18526,36.887716]},"properties":{"zipcode":42220,"city":"Elkton","state":"KY","dentist_count":1,"latitude":36.887716,"longitude":-87.18526,"cartodb_id":168,"created_at":"2014-10-13T23:05:37Z","updated_at":"2014-10-13T23:05:37Z"}},{"type":"Feature","geometry":{"type":"Point","coordinates":[-87.47617,36.866845]},"properties":{"zipcode":42240,"city":"Hopkinsville","state":"KY","dentist_count":10,"latitude":36.866845,"longitude":-87.47617,"cartodb_id":169,"created_at":"2014-10-13T23:05:37Z","updated_at":"2014-10-13T23:05:37Z"}},{"type":"Feature","geometry":{"type":"Point","coordinates":[-86.88171,36.860612]},"properties":{"zipcode":42276,"city":"Russellville","state":"KY","dentist_count":2,"latitude":36.860612,"longitude":-86.88171,"cartodb_id":170,"created_at":"2014-10-13T23:05:37Z","updated_at":"2014-10-13T23:05:37Z"}},{"type":"Feature","geometry":{"type":"Point","coordinates":[-87.17419,37.753347]},"properties":{"zipcode":42301,"city":"Owensboro","state":"KY","dentist_count":13,"latitude":37.753347,"longitude":-87.17419,"cartodb_id":171,"created_at":"2014-10-13T23:05:37Z","updated_at":"2014-10-13T23:05:37Z"}},{"type":"Feature","geometry":{"type":"Point","coordinates":[-87.08714,37.758568]},"properties":{"zipcode":42303,"city":"Owensboro","state":"KY","dentist_count":18,"latitude":37.758568,"longitude":-87.08714,"cartodb_id":172,"created_at":"2014-10-13T23:05:37Z","updated_at":"2014-10-13T23:05:37Z"}},{"type":"Feature","geometry":{"type":"Point","coordinates":[-86.88364,37.377266]},"properties":{"zipcode":42320,"city":"Beaver Dam","state":"KY","dentist_count":2,"latitude":37.377266,"longitude":-86.88364,"cartodb_id":173,"created_at":"2014-10-13T23:05:37Z","updated_at":"2014-10-13T23:05:37Z"}},{"type":"Feature","geometry":{"type":"Point","coordinates":[-87.12992,37.299591]},"properties":{"zipcode":42330,"city":"Central City","state":"KY","dentist_count":2,"latitude":37.299591,"longitude":-87.12992,"cartodb_id":174,"created_at":"2014-10-13T23:05:37Z","updated_at":"2014-10-13T23:05:37Z"}},{"type":"Feature","geometry":{"type":"Point","coordinates":[-87.18333,37.166299]},"properties":{"zipcode":42345,"city":"Greenville","state":"KY","dentist_count":3,"latitude":37.166299,"longitude":-87.18333,"cartodb_id":175,"created_at":"2014-10-13T23:05:37Z","updated_at":"2014-10-13T23:05:37Z"}},{"type":"Feature","geometry":{"type":"Point","coordinates":[-86.9063,37.471839]},"properties":{"zipcode":42347,"city":"Hartford","state":"KY","dentist_count":2,"latitude":37.471839,"longitude":-86.9063,"cartodb_id":176,"created_at":"2014-10-13T23:05:37Z","updated_at":"2014-10-13T23:05:37Z"}},{"type":"Feature","geometry":{"type":"Point","coordinates":[-87.11162,37.502836]},"properties":{"zipcode":42352,"city":"Livermore","state":"KY","dentist_count":1,"latitude":37.502836,"longitude":-87.11162,"cartodb_id":177,"created_at":"2014-10-13T23:05:37Z","updated_at":"2014-10-13T23:05:37Z"}},{"type":"Feature","geometry":{"type":"Point","coordinates":[-87.154898,37.242948]},"properties":{"zipcode":42367,"city":"Powderly","state":"KY","dentist_count":1,"latitude":37.242948,"longitude":-87.154898,"cartodb_id":178,"created_at":"2014-10-13T23:05:37Z","updated_at":"2014-10-13T23:05:37Z"}},{"type":"Feature","geometry":{"type":"Point","coordinates":[-87.68413,37.183465]},"properties":{"zipcode":42408,"city":"Dawson Springs","state":"KY","dentist_count":1,"latitude":37.183465,"longitude":-87.68413,"cartodb_id":179,"created_at":"2014-10-13T23:05:37Z","updated_at":"2014-10-13T23:05:37Z"}},{"type":"Feature","geometry":{"type":"Point","coordinates":[-87.56055,37.825094]},"properties":{"zipcode":42420,"city":"Henderson","state":"KY","dentist_count":12,"latitude":37.825094,"longitude":-87.56055,"cartodb_id":180,"created_at":"2014-10-13T23:05:37Z","updated_at":"2014-10-13T23:05:37Z"}},{"type":"Feature","geometry":{"type":"Point","coordinates":[-87.50378,37.330791]},"properties":{"zipcode":42431,"city":"Madisonville","state":"KY","dentist_count":11,"latitude":37.330791,"longitude":-87.50378,"cartodb_id":181,"created_at":"2014-10-13T23:05:37Z","updated_at":"2014-10-13T23:05:37Z"}},{"type":"Feature","geometry":{"type":"Point","coordinates":[-87.90199,37.67416]},"properties":{"zipcode":42437,"city":"Morganfield","state":"KY","dentist_count":3,"latitude":37.67416,"longitude":-87.90199,"cartodb_id":182,"created_at":"2014-10-13T23:05:37Z","updated_at":"2014-10-13T23:05:37Z"}},{"type":"Feature","geometry":{"type":"Point","coordinates":[-87.87429,37.12596]},"properties":{"zipcode":42445,"city":"Princeton","state":"KY","dentist_count":3,"latitude":37.12596,"longitude":-87.87429,"cartodb_id":183,"created_at":"2014-10-13T23:05:37Z","updated_at":"2014-10-13T23:05:37Z"}},{"type":"Feature","geometry":{"type":"Point","coordinates":[-87.76428,37.396445]},"properties":{"zipcode":42450,"city":"Providence","state":"KY","dentist_count":1,"latitude":37.396445,"longitude":-87.76428,"cartodb_id":184,"created_at":"2014-10-13T23:05:37Z","updated_at":"2014-10-13T23:05:37Z"}},{"type":"Feature","geometry":{"type":"Point","coordinates":[-87.99632,37.558719]},"properties":{"zipcode":42459,"city":"Sturgis","state":"KY","dentist_count":1,"latitude":37.558719,"longitude":-87.99632,"cartodb_id":185,"created_at":"2014-10-13T23:05:37Z","updated_at":"2014-10-13T23:05:37Z"}},{"type":"Feature","geometry":{"type":"Point","coordinates":[-84.54437,37.075624]},"properties":{"zipcode":42501,"city":"Somerset","state":"KY","dentist_count":15,"latitude":37.075624,"longitude":-84.54437,"cartodb_id":186,"created_at":"2014-10-13T23:05:37Z","updated_at":"2014-10-13T23:05:37Z"}},{"type":"Feature","geometry":{"type":"Point","coordinates":[-84.588,37.112274]},"properties":{"zipcode":42503,"city":"Somerset","state":"KY","dentist_count":3,"latitude":37.112274,"longitude":-84.588,"cartodb_id":187,"created_at":"2014-10-13T23:05:37Z","updated_at":"2014-10-13T23:05:37Z"}},{"type":"Feature","geometry":{"type":"Point","coordinates":[-84.81365,37.029286]},"properties":{"zipcode":42544,"city":"Nancy","state":"KY","dentist_count":1,"latitude":37.029286,"longitude":-84.81365,"cartodb_id":188,"created_at":"2014-10-13T23:05:37Z","updated_at":"2014-10-13T23:05:37Z"}},{"type":"Feature","geometry":{"type":"Point","coordinates":[-85.13539,36.72024]},"properties":{"zipcode":42602,"city":"Albany","state":"KY","dentist_count":2,"latitude":36.72024,"longitude":-85.13539,"cartodb_id":189,"created_at":"2014-10-13T23:05:37Z","updated_at":"2014-10-13T23:05:37Z"}},{"type":"Feature","geometry":{"type":"Point","coordinates":[-84.82841,36.801922]},"properties":{"zipcode":42633,"city":"Monticello","state":"KY","dentist_count":4,"latitude":36.801922,"longitude":-84.82841,"cartodb_id":190,"created_at":"2014-10-13T23:05:37Z","updated_at":"2014-10-13T23:05:37Z"}},{"type":"Feature","geometry":{"type":"Point","coordinates":[-85.06142,37.05401]},"properties":{"zipcode":42642,"city":"Russell Springs","state":"KY","dentist_count":2,"latitude":37.05401,"longitude":-85.06142,"cartodb_id":191,"created_at":"2014-10-13T23:05:37Z","updated_at":"2014-10-13T23:05:37Z"}},{"type":"Feature","geometry":{"type":"Point","coordinates":[-85.86403,37.704287]},"properties":{"zipcode":42701,"city":"Elizabethtown","state":"KY","dentist_count":18,"latitude":37.704287,"longitude":-85.86403,"cartodb_id":192,"created_at":"2014-10-13T23:05:37Z","updated_at":"2014-10-13T23:05:37Z"}},{"type":"Feature","geometry":{"type":"Point","coordinates":[-85.39971,36.765985]},"properties":{"zipcode":42717,"city":"Burkesville","state":"KY","dentist_count":1,"latitude":36.765985,"longitude":-85.39971,"cartodb_id":193,"created_at":"2014-10-13T23:05:37Z","updated_at":"2014-10-13T23:05:37Z"}},{"type":"Feature","geometry":{"type":"Point","coordinates":[-85.3549,37.372314]},"properties":{"zipcode":42718,"city":"Campbellsville","state":"KY","dentist_count":3,"latitude":37.372314,"longitude":-85.3549,"cartodb_id":194,"created_at":"2014-10-13T23:05:37Z","updated_at":"2014-10-13T23:05:37Z"}},{"type":"Feature","geometry":{"type":"Point","coordinates":[-85.27561,37.123196]},"properties":{"zipcode":42728,"city":"Columbia","state":"KY","dentist_count":3,"latitude":37.123196,"longitude":-85.27561,"cartodb_id":195,"created_at":"2014-10-13T23:05:37Z","updated_at":"2014-10-13T23:05:37Z"}},{"type":"Feature","geometry":{"type":"Point","coordinates":[-85.51436,37.234802]},"properties":{"zipcode":42743,"city":"Greensburg","state":"KY","dentist_count":2,"latitude":37.234802,"longitude":-85.51436,"cartodb_id":196,"created_at":"2014-10-13T23:05:37Z","updated_at":"2014-10-13T23:05:37Z"}},{"type":"Feature","geometry":{"type":"Point","coordinates":[-85.88288,37.176738]},"properties":{"zipcode":42749,"city":"Horse Cave","state":"KY","dentist_count":2,"latitude":37.176738,"longitude":-85.88288,"cartodb_id":197,"created_at":"2014-10-13T23:05:37Z","updated_at":"2014-10-13T23:05:37Z"}},{"type":"Feature","geometry":{"type":"Point","coordinates":[-86.30731,37.479797]},"properties":{"zipcode":42754,"city":"Leitchfield","state":"KY","dentist_count":1,"latitude":37.479797,"longitude":-86.30731,"cartodb_id":198,"created_at":"2014-10-13T23:05:37Z","updated_at":"2014-10-13T23:05:37Z"}},{"type":"Feature","geometry":{"type":"Point","coordinates":[-85.90786,37.291869]},"properties":{"zipcode":42765,"city":"Munfordville","state":"KY","dentist_count":2,"latitude":37.291869,"longitude":-85.90786,"cartodb_id":199,"created_at":"2014-10-13T23:05:37Z","updated_at":"2014-10-13T23:05:37Z"}},{"type":"Feature","geometry":{"type":"Point","coordinates":[-85.72035,38.309105]},"properties":{"zipcode":47130,"city":"Jeffersonville","state":"IN","dentist_count":1,"latitude":38.309105,"longitude":-85.72035,"cartodb_id":200,"created_at":"2014-10-13T23:05:37Z","updated_at":"2014-10-13T23:05:37Z"}}]}