{"type":"FeatureCollection","features":[{"type":"Feature","geometry":{"type":"Point","coordinates":[-145.4719,60.49688]},"properties":{"CERCLIS EPA ID":"AKSFN1002218","SITE NAME":"ADEC ALASKA DOT & PF CORDOVA LOCKE SAL","ADDRESS":"MILE 1 CABIN LAKE ROADCORDOVA, AK  99574","COUNTY":"VALDEZ CORDOVA","SITE SMSA":"","FEDERAL FACILITY":"N","NPL STATUS":"Not on the NPL","CORPORATELINK":"No","RECORD OF DECISION (ROD) INFO":"No","EPA REGIONALLINK":"No"}},{"type":"Feature","geometry":{"type":"Point","coordinates":[-149.861384,61.221335]},"properties":{"CERCLIS EPA ID":"AKD980983241","SITE NAME":"ALASKA RAILROAD CORP","ADDRESS":"1ST AVENUEANCHORAGE, AK  99501","COUNTY":"ANCHORAGE","SITE SMSA":"380","FEDERAL FACILITY":"N","NPL STATUS":"Not on the NPL","CORPORATELINK":"No","RECORD OF DECISION (ROD) INFO":"No","EPA REGIONALLINK":"No"}},{"type":"Feature","geometry":{"type":"Point","coordinates":[-147.5643,64.8122]},"properties":{"CERCLIS EPA ID":"AKD980988158","SITE NAME":"ARCTIC SURPLUS","ADDRESS":"BADGER & OLD RICHARDSON HWYFAIRBANKS, AK  99707","COUNTY":"FAIRBANKS NORTH STAR","SITE SMSA":"","FEDERAL FACILITY":"N","NPL STATUS":"Deleted from the Final NPL","CORPORATELINK":"No","RECORD OF DECISION (ROD) INFO":"Yes","EPA REGIONALLINK":"No"}},{"type":"Feature","geometry":{"type":"Point","coordinates":[-147.73334,64.84689]},"properties":{"CERCLIS EPA ID":"AKN001002940","SITE NAME":"CHENA POWER PLANT","ADDRESS":"1200  1ST AVEFAIRBANKS, AK  99701","COUNTY":"FAIRBANKS NORTH STAR","SITE SMSA":"","FEDERAL FACILITY":"N","NPL STATUS":"Not on the NPL","CORPORATELINK":"No","RECORD OF DECISION (ROD) INFO":"No","EPA REGIONALLINK":"No"}},{"type":"Feature","geometry":{"type":"Point","coordinates":[-147.71527,64.83676]},"properties":{"CERCLIS EPA ID":"AKN001003037","SITE NAME":"COIN KING LAUNDROMAT","ADDRESS":"431 GAFFNEY ROADFAIRBANKS, AK  99701","COUNTY":"FAIRBANKS NORTH STAR","SITE SMSA":"","FEDERAL FACILITY":"N","NPL STATUS":"Not on the NPL","CORPORATELINK":"No","RECORD OF DECISION (ROD) INFO":"No","EPA REGIONALLINK":"No"}},{"type":"Feature","geometry":{"type":"Point","coordinates":[-147.34844,64.737264]},"properties":{"CERCLIS EPA ID":"AKD000850701","SITE NAME":"FLINT HILLLS RESOURCES ALASKA - NORTH POLE","ADDRESS":"1100 H & H LANENORTH POLE, AK  99705","COUNTY":"FAIRBANKS NORTH STAR","SITE SMSA":"","FEDERAL FACILITY":"N","NPL STATUS":"Not on the NPL","CORPORATELINK":"No","RECORD OF DECISION (ROD) INFO":"No","EPA REGIONALLINK":"No"}},{"type":"Feature","geometry":{"type":"Point","coordinates":[-149.87011,61.21855]},"properties":{"CERCLIS EPA ID":"AKN001002925","SITE NAME":"FOURTH AVENUE & GAMBLE PARKING LOT","ADDRESS":"717 EAST 4TH AVENUEANCHORAGE, AK  99501","COUNTY":"ANCHORAGE","SITE SMSA":"","FEDERAL FACILITY":"N","NPL STATUS":"Not on the NPL","CORPORATELINK":"No","RECORD OF DECISION (ROD) INFO":"No","EPA REGIONALLINK":"No"}},{"type":"Feature","geometry":{"type":"Point","coordinates":[-149.7917,61.25416]},"properties":{"CERCLIS EPA ID":"AK8570028649","SITE NAME":"JOINT BASE ELMENDORF-RICHARDSON","ADDRESS":"6326 ARCTIC WARRIOR DRIVEANCHORAGE, AK  99506","COUNTY":"ANCHORAGE","SITE SMSA":"380","FEDERAL FACILITY":"Y","NPL STATUS":"Currently on the Final NPL","CORPORATELINK":"No","RECORD OF DECISION (ROD) INFO":"Yes","EPA REGIONALLINK":"No"}},{"type":"Feature","geometry":{"type":"Point","coordinates":[-131.73251,55.40811]},"properties":{"CERCLIS EPA ID":"AKD009252230","SITE NAME":"KETCHIKAN PULP CO","ADDRESS":"7559 NORTH TONGASS HIGHWAYKETCHIKAN, AK  99901-9101","COUNTY":"KETCHIKAN GATEWAY","SITE SMSA":"","FEDERAL FACILITY":"N","NPL STATUS":"Not on the NPL","CORPORATELINK":"No","RECORD OF DECISION (ROD) INFO":"Yes","EPA REGIONALLINK":"No"}},{"type":"Feature","geometry":{"type":"Point","coordinates":[-141.93122,62.95904]},"properties":{"CERCLIS EPA ID":"AKD983076530","SITE NAME":"NORTHWAY VILLAGE STAGING AREA","ADDRESS":"NORTHWAY AIRFIELD NAV AIDSNORTHWAY, AK  99764","COUNTY":"SOUTHEAST FAIRBANKS","SITE SMSA":"","FEDERAL FACILITY":"N","NPL STATUS":"Not on the NPL","CORPORATELINK":"No","RECORD OF DECISION (ROD) INFO":"No","EPA REGIONALLINK":"No"}},{"type":"Feature","geometry":{"type":"Point","coordinates":[-149.85873,61.22328]},"properties":{"CERCLIS EPA ID":"AKN001002918","SITE NAME":"POST ROAD DRUM SITE","ADDRESS":"200 N. POST ROADANCHORAGE, AK  99510","COUNTY":"ANCHORAGE","SITE SMSA":"","FEDERAL FACILITY":"N","NPL STATUS":"Not on the NPL","CORPORATELINK":"No","RECORD OF DECISION (ROD) INFO":"No","EPA REGIONALLINK":"No"}},{"type":"Feature","geometry":{"type":"Point","coordinates":[-132.558614,55.626389]},"properties":{"CERCLIS EPA ID":"AK0001897602","SITE NAME":"SALT CHUCK MINE","ADDRESS":"4 MI SW CY,  T72S R84E S17, COPPER RIVERTHORNE BAY, AK  99919","COUNTY":"PRINCE WALES KETCHIKAN","SITE SMSA":"","FEDERAL FACILITY":"N","NPL STATUS":"Currently on the Final NPL","CORPORATELINK":"No","RECORD OF DECISION (ROD) INFO":"No","EPA REGIONALLINK":"No"}},{"type":"Feature","geometry":{"type":"Point","coordinates":[-135.318663,59.453869]},"properties":{"CERCLIS EPA ID":"AKSFN1002184","SITE NAME":"SKAGWAY RAILROAD YARD","ADDRESS":"231 - 2ND AVENUESKAGWAY, AK  99840","COUNTY":"SKAGWAY HOONAH ANGOON","SITE SMSA":"","FEDERAL FACILITY":"N","NPL STATUS":"Not on the NPL","CORPORATELINK":"No","RECORD OF DECISION (ROD) INFO":"No","EPA REGIONALLINK":"No"}},{"type":"Feature","geometry":{"type":"Point","coordinates":[-149.8324,61.2279]},"properties":{"CERCLIS EPA ID":"AKD980978787","SITE NAME":"STANDARD STEEL & METALS CO","ADDRESS":"2400 RAILROAD AVEANCHORAGE, AK  99501","COUNTY":"ANCHORAGE","SITE SMSA":"380","FEDERAL FACILITY":"Y","NPL STATUS":"Deleted from the Final NPL","CORPORATELINK":"No","RECORD OF DECISION (ROD) INFO":"Yes","EPA REGIONALLINK":"No"}},{"type":"Feature","geometry":{"type":"Point","coordinates":[-145.40306,62.04751]},"properties":{"CERCLIS EPA ID":"AKN001003092","SITE NAME":"TAZLINA COPPER VALLEY SCHOOL","ADDRESS":"OLD SCHOOL RDTAZLINA, AK  99588","COUNTY":"VALDEZ-CORDOVA","SITE SMSA":"","FEDERAL FACILITY":"N","NPL STATUS":"Not on the NPL","CORPORATELINK":"No","RECORD OF DECISION (ROD) INFO":"No","EPA REGIONALLINK":"No"}},{"type":"Feature","geometry":{"type":"Point","coordinates":[-134.408333,58.203333]},"properties":{"CERCLIS EPA ID":"AKD981767320","SITE NAME":"THANE MINE DUMP","ADDRESS":"THANE ROADJUNEAU, AK  99801","COUNTY":"JUNEAU","SITE SMSA":"","FEDERAL FACILITY":"N","NPL STATUS":"Not on the NPL","CORPORATELINK":"No","RECORD OF DECISION (ROD) INFO":"No","EPA REGIONALLINK":"No"}},{"type":"Feature","geometry":{"type":"Point","coordinates":[-134.375833,58.263889]},"properties":{"CERCLIS EPA ID":"AKD981767387","SITE NAME":"TREADWELL MINES","ADDRESS":"GASTINEAU CHANNEL, NE SIDEDOUGLAS, AK  99824","COUNTY":"JUNEAU","SITE SMSA":"","FEDERAL FACILITY":"N","NPL STATUS":"Not on the NPL","CORPORATELINK":"No","RECORD OF DECISION (ROD) INFO":"No","EPA REGIONALLINK":"No"}},{"type":"Feature","geometry":{"type":"Point","coordinates":[-149.7,61.25833]},"properties":{"CERCLIS EPA ID":"AK6214522157","SITE NAME":"U.S. ARMY FORT RICHARDSON TRAINING RANGES","ADDRESS":"730 QUARTERMASTER RDJBER, AK  99505-6500","COUNTY":"ANCHORAGE","SITE SMSA":"380","FEDERAL FACILITY":"Y","NPL STATUS":"Currently on the Final NPL","CORPORATELINK":"No","RECORD OF DECISION (ROD) INFO":"Yes","EPA REGIONALLINK":"No"}},{"type":"Feature","geometry":{"type":"Point","coordinates":[-131.62543,55.3338]},"properties":{"CERCLIS EPA ID":"AK8690360492","SITE NAME":"U.S. COAST GUARD BSU KETCHIKAN","ADDRESS":"1300 STEDMAN STREETKETCHIKAN, AK  99901-6661","COUNTY":"KETCHIKAN GATEWAY","SITE SMSA":"","FEDERAL FACILITY":"Y","NPL STATUS":"Not on the NPL","CORPORATELINK":"No","RECORD OF DECISION (ROD) INFO":"No","EPA REGIONALLINK":"No"}},{"type":"Feature","geometry":{"type":"Point","coordinates":[-149.871824,61.129407]},"properties":{"CERCLIS EPA ID":"AKN001002912","SITE NAME":"UNIVAR USA INC","ADDRESS":"590 EAST 100TH STREETANCHORAGE, AK  99515-2603","COUNTY":"ANCHORAGE","SITE SMSA":"","FEDERAL FACILITY":"N","NPL STATUS":"Not on the NPL","CORPORATELINK":"No","RECORD OF DECISION (ROD) INFO":"No","EPA REGIONALLINK":"No"}},{"type":"Feature","geometry":{"type":"Point","coordinates":[-145.72487,63.98791]},"properties":{"CERCLIS EPA ID":"AK8214522155","SITE NAME":"US ARMY - FORT GREELY","ADDRESS":"RICHARDSON HIGHWAYFORT GREELY, AK  99737","COUNTY":"SOUTHEAST FAIRBANKS","SITE SMSA":"380","FEDERAL FACILITY":"Y","NPL STATUS":"Not on the NPL","CORPORATELINK":"No","RECORD OF DECISION (ROD) INFO":"No","EPA REGIONALLINK":"No"}},{"type":"Feature","geometry":{"type":"Point","coordinates":[-147.6106,64.823]},"properties":{"CERCLIS EPA ID":"AK6210022426","SITE NAME":"US ARMY FORT WAINWRIGHT CANTONMENT","ADDRESS":"1060 GAFFNEY ROAD #4500FORT WAINWRIGHT, AK  99703-5002","COUNTY":"FAIRBANKS NORTH STAR","SITE SMSA":"","FEDERAL FACILITY":"Y","NPL STATUS":"Currently on the Final NPL","CORPORATELINK":"No","RECORD OF DECISION (ROD) INFO":"Yes","EPA REGIONALLINK":"No"}},{"type":"Feature","geometry":{"type":"Point","coordinates":[-143.57704,70.1339]},"properties":{"CERCLIS EPA ID":"AK5570028618","SITE NAME":"USAF - BARTER ISLAND LRRS","ADDRESS":"70??08???02???N 143??34???55???WKAKTOVIK, AK  99747","COUNTY":"NORTH SLOPE","SITE SMSA":"","FEDERAL FACILITY":"Y","NPL STATUS":"Not on the NPL","CORPORATELINK":"No","RECORD OF DECISION (ROD) INFO":"No","EPA REGIONALLINK":"No"}},{"type":"Feature","geometry":{"type":"Point","coordinates":[174.106822,52.723713]},"properties":{"CERCLIS EPA ID":"AK9570028705","SITE NAME":"USAF - EARECKSON AIR STATION","ADDRESS":"UNNAMED STREETSHEMYA ISLAND, AK  99666","COUNTY":"ALEUTIANS WEST","SITE SMSA":"","FEDERAL FACILITY":"Y","NPL STATUS":"Not on the NPL","CORPORATELINK":"No","RECORD OF DECISION (ROD) INFO":"No","EPA REGIONALLINK":"No"}},{"type":"Feature","geometry":{"type":"Point","coordinates":[-147.0492,64.67145]},"properties":{"CERCLIS EPA ID":"AK1570028646","SITE NAME":"USAF - EIELSON AFB","ADDRESS":"2310 CENTRAL AVE, SUITE 100EIELSON AFB, AK  99702","COUNTY":"FAIRBANKS NORTH STAR","SITE SMSA":"","FEDERAL FACILITY":"Y","NPL STATUS":"Currently on the Final NPL","CORPORATELINK":"No","RECORD OF DECISION (ROD) INFO":"Yes","EPA REGIONALLINK":"No"}},{"type":"Feature","geometry":{"type":"Point","coordinates":[-156.95358,64.741989]},"properties":{"CERCLIS EPA ID":"AK9570028655","SITE NAME":"USAF - GALENA AIR FORCE STATION","ADDRESS":"AIRPORT ROADGALENA, AK  99741","COUNTY":"YUKON-KOYUKUK","SITE SMSA":"","FEDERAL FACILITY":"Y","NPL STATUS":"Not on the NPL","CORPORATELINK":"No","RECORD OF DECISION (ROD) INFO":"No","EPA REGIONALLINK":"No"}},{"type":"Feature","geometry":{"type":"Point","coordinates":[-156.67073,58.69301]},"properties":{"CERCLIS EPA ID":"AK3570028669","SITE NAME":"USAF - KING SALMON","ADDRESS":"AIR FORCE BASE DRIVEKING SALMON, AK  99613","COUNTY":"BRISTOL BAY","SITE SMSA":"","FEDERAL FACILITY":"Y","NPL STATUS":"Not on the NPL","CORPORATELINK":"No","RECORD OF DECISION (ROD) INFO":"No","EPA REGIONALLINK":"No"}},{"type":"Feature","geometry":{"type":"Point","coordinates":[-134.38715,58.27423]},"properties":{"CERCLIS EPA ID":"AKN001002950","SITE NAME":"USDOI BLM JOHN RISHEL MINERLA INFORMATION CENTER","ADDRESS":"100 SAVIKKODOUGLAS, AK  99824-5500","COUNTY":"JUNEAU","SITE SMSA":"","FEDERAL FACILITY":"Y","NPL STATUS":"Not on the NPL","CORPORATELINK":"No","RECORD OF DECISION (ROD) INFO":"No","EPA REGIONALLINK":"No"}},{"type":"Feature","geometry":{"type":"Point","coordinates":[-147.7038,64.8203]},"properties":{"CERCLIS EPA ID":"AKD004904215","SITE NAME":"USEPA ALASKA BATTERY ENTERPRISES CLEANUP","ADDRESS":"157 OLD RICHARDSON HIGHWAYFAIRBANKS, AK  99701","COUNTY":"FAIRBANKS NORTH STAR","SITE SMSA":"","FEDERAL FACILITY":"N","NPL STATUS":"Deleted from the Final NPL","CORPORATELINK":"No","RECORD OF DECISION (ROD) INFO":"Yes","EPA REGIONALLINK":"No"}},{"type":"Feature","geometry":{"type":"Point","coordinates":[-176.6525,51.8775]},"properties":{"CERCLIS EPA ID":"AK4170024323","SITE NAME":"USNAVY CARETAKER SITE OFFICE ADAK","ADDRESS":"ALL OF MILITARY ON ADAK ISLANDADAK, AK  995461221","COUNTY":"ALEUTIANS WEST","SITE SMSA":"","FEDERAL FACILITY":"Y","NPL STATUS":"Currently on the Final NPL","CORPORATELINK":"No","RECORD OF DECISION (ROD) INFO":"Yes","EPA REGIONALLINK":"No"}},{"type":"Feature","geometry":{"type":"Point","coordinates":[-86.94184,33.45144]},"properties":{"CERCLIS EPA ID":"ALN000410200","SITE NAME":"11TH AVENUE MERCURY SPILL","ADDRESS":"11TH AVENUEBIRMINGHAM, AL","COUNTY":"JEFFERSON","SITE SMSA":"","FEDERAL FACILITY":"N","NPL STATUS":"Not on the NPL","CORPORATELINK":"No","RECORD OF DECISION (ROD) INFO":"No","EPA REGIONALLINK":"No"}},{"type":"Feature","geometry":{"type":"Point","coordinates":[-86.81951,33.56468]},"properties":{"CERCLIS EPA ID":"ALN000410975","SITE NAME":"41ST AVE N. WIRE FLUFF PILE","ADDRESS":"41ST AVE N.(NEAR INTERSECTION OF 37TH STBIRMINGHAM, AL  35207","COUNTY":"JEFFERSON","SITE SMSA":"","FEDERAL FACILITY":"N","NPL STATUS":"Not on the NPL","CORPORATELINK":"No","RECORD OF DECISION (ROD) INFO":"No","EPA REGIONALLINK":"No"}},{"type":"Feature","geometry":{"type":"Point","coordinates":[-86.808016,33.548532]},"properties":{"CERCLIS EPA ID":"ALD003398377","SITE NAME":"A & B FOUNDRY INC","ADDRESS":"2631 SHUTTLESWORTH DRIVEBIRMINGHAM, AL  35234-1342","COUNTY":"JEFFERSON","SITE SMSA":"","FEDERAL FACILITY":"N","NPL STATUS":"Not on the NPL","CORPORATELINK":"No","RECORD OF DECISION (ROD) INFO":"No","EPA REGIONALLINK":"No"}},{"type":"Feature","geometry":{"type":"Point","coordinates":[-88.06661,30.72353]},"properties":{"CERCLIS EPA ID":"ALN000407812","SITE NAME":"ACE DRUM SITE","ADDRESS":"1801 REDDY STREETMOBILE, AL  36610","COUNTY":"MOBILE","SITE SMSA":"","FEDERAL FACILITY":"N","NPL STATUS":"Not on the NPL","CORPORATELINK":"No","RECORD OF DECISION (ROD) INFO":"No","EPA REGIONALLINK":"No"}},{"type":"Feature","geometry":{"type":"Point","coordinates":[-86.53368,33.5413]},"properties":{"CERCLIS EPA ID":"ALD982097669","SITE NAME":"ACME PACKAGING  LEEDS FACILITY","ADDRESS":"1230 PARKWAY DRIVELEEDS, AL  35094","COUNTY":"JEFFERSON","SITE SMSA":"1000","FEDERAL FACILITY":"N","NPL STATUS":"Not on the NPL","CORPORATELINK":"No","RECORD OF DECISION (ROD) INFO":"No","EPA REGIONALLINK":"No"}},{"type":"Feature","geometry":{"type":"Point","coordinates":[-86.507602,33.607092]},"properties":{"CERCLIS EPA ID":"ALSFN0406899","SITE NAME":"ADVANCED DISPOSAL SERVICES STAR RIDGE LA","ADDRESS":"3301 ACMAR ROADMOODY, AL  35004-2737","COUNTY":"ST CLAIR","SITE SMSA":"","FEDERAL FACILITY":"N","NPL STATUS":"Not on the NPL","CORPORATELINK":"No","RECORD OF DECISION (ROD) INFO":"No","EPA REGIONALLINK":"No"}},{"type":"Feature","geometry":{"type":"Point","coordinates":[-86.331818,30.999351]},"properties":{"CERCLIS EPA ID":"ALSFN0406863","SITE NAME":"ADVANCED THERMAL COATINGS, INC.","ADDRESS":"428 S. 4TH ST.FLORALA, AL  36442-3821","COUNTY":"COVINGTON","SITE SMSA":"","FEDERAL FACILITY":"N","NPL STATUS":"Not on the NPL","CORPORATELINK":"No","RECORD OF DECISION (ROD) INFO":"No","EPA REGIONALLINK":"No"}},{"type":"Feature","geometry":{"type":"Point","coordinates":[-88.0175,30.96943]},"properties":{"CERCLIS EPA ID":"ALD008161176","SITE NAME":"AKZO NOBEL FUNCTIONAL CHEMICALS","ADDRESS":"13440 HWY 43 NAXIS, AL  36505-4313","COUNTY":"MOBILE","SITE SMSA":"5160","FEDERAL FACILITY":"N","NPL STATUS":"Currently on the Final NPL","CORPORATELINK":"No","RECORD OF DECISION (ROD) INFO":"Yes","EPA REGIONALLINK":"No"}},{"type":"Feature","geometry":{"type":"Point","coordinates":[-85.83522,33.67031]},"properties":{"CERCLIS EPA ID":"ALSFN0407148","SITE NAME":"ALABAMA PIPE AND FOUNDRY","ADDRESS":"WEST 20TH ST. & MCCOY AVEANNISTON, AL  36201","COUNTY":"CALHOUN","SITE SMSA":"","FEDERAL FACILITY":"N","NPL STATUS":"Not on the NPL","CORPORATELINK":"No","RECORD OF DECISION (ROD) INFO":"No","EPA REGIONALLINK":"No"}},{"type":"Feature","geometry":{"type":"Point","coordinates":[-86.405,33.39972]},"properties":{"CERCLIS EPA ID":"ALSFN0406862","SITE NAME":"ALABAMA PLATING CO INC","ADDRESS":"HIGHWAY 231 NORTHVINCENT, AL  35178","COUNTY":"SHELBY","SITE SMSA":"","FEDERAL FACILITY":"N","NPL STATUS":"Not on the NPL","CORPORATELINK":"No","RECORD OF DECISION (ROD) INFO":"No","EPA REGIONALLINK":"No"}},{"type":"Feature","geometry":{"type":"Point","coordinates":[-86.459093,33.243803]},"properties":{"CERCLIS EPA ID":"ALD083742858","SITE NAME":"ALABAMA POWER CO EC GASTON STEAM PLANT","ADDRESS":"31972 HIGHWAY 25WILSONVILLE, AL  35186","COUNTY":"SHELBY","SITE SMSA":"1000","FEDERAL FACILITY":"N","NPL STATUS":"Not on the NPL","CORPORATELINK":"No","RECORD OF DECISION (ROD) INFO":"No","EPA REGIONALLINK":"No"}},{"type":"Feature","geometry":{"type":"Point","coordinates":[-85.970092,34.010515]},"properties":{"CERCLIS EPA ID":"ALD000615542","SITE NAME":"ALABAMA POWER COMPANY PLANT GADSDEN","ADDRESS":"1000 GOODYEAR AVENUEGADSDEN, AL  35903-1109","COUNTY":"ETOWAH","SITE SMSA":"","FEDERAL FACILITY":"N","NPL STATUS":"Not on the NPL","CORPORATELINK":"No","RECORD OF DECISION (ROD) INFO":"No","EPA REGIONALLINK":"No"}},{"type":"Feature","geometry":{"type":"Point","coordinates":[-86.77132,33.59452]},"properties":{"CERCLIS EPA ID":"ALD094476793","SITE NAME":"ALLWORTH LLC","ADDRESS":"500 MEDCO RD.BIRMINGHAM, AL  35217","COUNTY":"JEFFERSON","SITE SMSA":"1000","FEDERAL FACILITY":"N","NPL STATUS":"Not on the NPL","CORPORATELINK":"No","RECORD OF DECISION (ROD) INFO":"No","EPA REGIONALLINK":"No"}},{"type":"Feature","geometry":{"type":"Point","coordinates":[-85.40416,31.325]},"properties":{"CERCLIS EPA ID":"ALD981868466","SITE NAME":"AMERICAN BRASS INC","ADDRESS":"HIGHWAY 134 WESTHEADLAND, AL  36345","COUNTY":"HENRY","SITE SMSA":"","FEDERAL FACILITY":"N","NPL STATUS":"Currently on the Final NPL","CORPORATELINK":"No","RECORD OF DECISION (ROD) INFO":"Yes","EPA REGIONALLINK":"No"}},{"type":"Feature","geometry":{"type":"Point","coordinates":[-86.40643,33.14647]},"properties":{"CERCLIS EPA ID":"ALD087638755","SITE NAME":"AMERICAN COLOR GRAPHICS SYLACAUGA","ADDRESS":"1215 FAYETTEVILLE ROADSYLACAUGA, AL  35150-2305","COUNTY":"TALLADEGA","SITE SMSA":"","FEDERAL FACILITY":"N","NPL STATUS":"Not on the NPL","CORPORATELINK":"No","RECORD OF DECISION (ROD) INFO":"No","EPA REGIONALLINK":"No"}},{"type":"Feature","geometry":{"type":"Point","coordinates":[-85.836091,33.657169]},"properties":{"CERCLIS EPA ID":"ALD061143350","SITE NAME":"ANCHOR METALS","ADDRESS":"1008 GLEN ADDIE AVEANNISTON, AL  36201-4592","COUNTY":"CALHOUN","SITE SMSA":"450","FEDERAL FACILITY":"N","NPL STATUS":"Not on the NPL","CORPORATELINK":"No","RECORD OF DECISION (ROD) INFO":"No","EPA REGIONALLINK":"No"}},{"type":"Feature","geometry":{"type":"Point","coordinates":[-87.519825,33.168424]},"properties":{"CERCLIS EPA ID":"ALN000407553","SITE NAME":"ANDREW KNIT","ADDRESS":"1416 SKYLAND BOULEVARD EASTTUSCALOOSA, AL  35405","COUNTY":"TUSCALOOSA","SITE SMSA":"","FEDERAL FACILITY":"N","NPL STATUS":"Not on the NPL","CORPORATELINK":"No","RECORD OF DECISION (ROD) INFO":"No","EPA REGIONALLINK":"No"}},{"type":"Feature","geometry":{"type":"Point","coordinates":[-86.29419,32.37558]},"properties":{"CERCLIS EPA ID":"ALSFN0406917","SITE NAME":"ANGELICA HEALTHCARE SERVICES","ADDRESS":"1038 ADAMS AVEMONTGOMERY, AL  36104","COUNTY":"MONTGOMERY","SITE SMSA":"","FEDERAL FACILITY":"N","NPL STATUS":"Not on the NPL","CORPORATELINK":"No","RECORD OF DECISION (ROD) INFO":"No","EPA REGIONALLINK":"No"}},{"type":"Feature","geometry":{"type":"Point","coordinates":[-85.85698,33.66227]},"properties":{"CERCLIS EPA ID":"ALN000409875","SITE NAME":"ANNISTON CHEMICAL","ADDRESS":"2100 WEST 14TH STREETANNISTON, AL  36201-3406","COUNTY":"CALHOUN","SITE SMSA":"","FEDERAL FACILITY":"N","NPL STATUS":"Not on the NPL","CORPORATELINK":"No","RECORD OF DECISION (ROD) INFO":"No","EPA REGIONALLINK":"No"}},{"type":"Feature","geometry":{"type":"Point","coordinates":[-85.83705,33.67138]},"properties":{"CERCLIS EPA ID":"ALSFN0407149","SITE NAME":"ANNISTON CONCRETE","ADDRESS":"600 WEST 21ST STREETANNISTON, AL  36201-3080","COUNTY":"CALHOUN","SITE SMSA":"","FEDERAL FACILITY":"N","NPL STATUS":"Not on the NPL","CORPORATELINK":"No","RECORD OF DECISION (ROD) INFO":"No","EPA REGIONALLINK":"No"}},{"type":"Feature","geometry":{"type":"Point","coordinates":[-85.83134,33.65707]},"properties":{"CERCLIS EPA ID":"ALSFN0407150","SITE NAME":"ANNISTON SCRAP","ADDRESS":"10TH ST. & GURNEE AVE.ANNISTON, AL  36201","COUNTY":"CALHOUN","SITE SMSA":"","FEDERAL FACILITY":"N","NPL STATUS":"Not on the NPL","CORPORATELINK":"No","RECORD OF DECISION (ROD) INFO":"No","EPA REGIONALLINK":"No"}},{"type":"Feature","geometry":{"type":"Point","coordinates":[-87.589165,33.161702]},"properties":{"CERCLIS EPA ID":"ALSFN0407057","SITE NAME":"APAC","ADDRESS":"5356 MARTIN LUTHER KING BLVD.TUSCALOOSA, AL  35487","COUNTY":"TUSCALOOSA","SITE SMSA":"","FEDERAL FACILITY":"N","NPL STATUS":"Not on the NPL","CORPORATELINK":"No","RECORD OF DECISION (ROD) INFO":"No","EPA REGIONALLINK":"No"}},{"type":"Feature","geometry":{"type":"Point","coordinates":[-86.433611,34.319444]},"properties":{"CERCLIS EPA ID":"ALD000608018","SITE NAME":"ARAB PLATING CO","ADDRESS":"ROUTE 1 BOX 177ARAB, AL  35016","COUNTY":"MARSHALL","SITE SMSA":"3440","FEDERAL FACILITY":"N","NPL STATUS":"Not on the NPL","CORPORATELINK":"No","RECORD OF DECISION (ROD) INFO":"No","EPA REGIONALLINK":"No"}},{"type":"Feature","geometry":{"type":"Point","coordinates":[-86.590231,34.710193]},"properties":{"CERCLIS EPA ID":"ALD004000998","SITE NAME":"ARORA TECHNOLOGIES INC","ADDRESS":"2615 MEMORIAL PARKWAY SWHUNTSVILLE, AL  35801-5629","COUNTY":"MADISON","SITE SMSA":"3440","FEDERAL FACILITY":"N","NPL STATUS":"Not on the NPL","CORPORATELINK":"No","RECORD OF DECISION (ROD) INFO":"No","EPA REGIONALLINK":"No"}},{"type":"Feature","geometry":{"type":"Point","coordinates":[-88.0468,30.66905]},"properties":{"CERCLIS EPA ID":"AL0001695659","SITE NAME":"B AND B MANUFACTURING","ADDRESS":"401 SOUTH CAROLINA STREETMOBILE, AL  36603-2037","COUNTY":"MOBILE","SITE SMSA":"","FEDERAL FACILITY":"N","NPL STATUS":"Not on the NPL","CORPORATELINK":"No","RECORD OF DECISION (ROD) INFO":"No","EPA REGIONALLINK":"No"}},{"type":"Feature","geometry":{"type":"Point","coordinates":[-88.04809,30.66681]},"properties":{"CERCLIS EPA ID":"ALN000407707","SITE NAME":"BAKER STREET DRUMS","ADDRESS":"BAKER AND YUND STREETMOBILE, AL  36602","COUNTY":"MOBILE","SITE SMSA":"","FEDERAL FACILITY":"N","NPL STATUS":"Not on the NPL","CORPORATELINK":"No","RECORD OF DECISION (ROD) INFO":"No","EPA REGIONALLINK":"No"}},{"type":"Feature","geometry":{"type":"Point","coordinates":[-86.95854,33.407161]},"properties":{"CERCLIS EPA ID":"ALN970925000","SITE NAME":"BAMA OIL","ADDRESS":"2012 8TH AVENUEBESSEMER, AL  35020","COUNTY":"JEFFERSON","SITE SMSA":"","FEDERAL FACILITY":"N","NPL STATUS":"Not on the NPL","CORPORATELINK":"No","RECORD OF DECISION (ROD) INFO":"No","EPA REGIONALLINK":"No"}},{"type":"Feature","geometry":{"type":"Point","coordinates":[-87.9955,31.279]},"properties":{"CERCLIS EPA ID":"ALD001221902","SITE NAME":"BASF CORP","ADDRESS":"1379 CIBA RDMC INTOSH, AL  365530113","COUNTY":"WASHINGTON","SITE SMSA":"","FEDERAL FACILITY":"N","NPL STATUS":"Currently on the Final NPL","CORPORATELINK":"No","RECORD OF DECISION (ROD) INFO":"Yes","EPA REGIONALLINK":"No"}},{"type":"Feature","geometry":{"type":"Point","coordinates":[-87.0041,33.3395]},"properties":{"CERCLIS EPA ID":"ALD058639113","SITE NAME":"BAUMANN COATINGS, INC.","ADDRESS":"2095 4TH AVENUE SOUTHWESTBESSEMER, AL  35022-5309","COUNTY":"JEFFERSON","SITE SMSA":"1000","FEDERAL FACILITY":"N","NPL STATUS":"Not on the NPL","CORPORATELINK":"No","RECORD OF DECISION (ROD) INFO":"No","EPA REGIONALLINK":"No"}},{"type":"Feature","geometry":{"type":"Point","coordinates":[-86.948264,33.398093]},"properties":{"CERCLIS EPA ID":"AL0001411628","SITE NAME":"BESSEMER ADAMS SITE","ADDRESS":"1447 BERKLY STREETBESSEMER, AL  35020","COUNTY":"JEFFERSON","SITE SMSA":"1000","FEDERAL FACILITY":"N","NPL STATUS":"Not on the NPL","CORPORATELINK":"No","RECORD OF DECISION (ROD) INFO":"No","EPA REGIONALLINK":"No"}},{"type":"Feature","geometry":{"type":"Point","coordinates":[-86.958812,33.407202]},"properties":{"CERCLIS EPA ID":"ALD983181983","SITE NAME":"BESSEMER DRUM SITE","ADDRESS":"817 20TH STREETBESSEMER, AL  35020","COUNTY":"JEFFERSON","SITE SMSA":"1000","FEDERAL FACILITY":"N","NPL STATUS":"Not on the NPL","CORPORATELINK":"No","RECORD OF DECISION (ROD) INFO":"No","EPA REGIONALLINK":"No"}},{"type":"Feature","geometry":{"type":"Point","coordinates":[-86.95193,33.41533]},"properties":{"CERCLIS EPA ID":"ALN000410067","SITE NAME":"BESSEMER PETROLEUM INC","ADDRESS":"2701 NORTH 8TH AVENUEBESSEMER, AL  35020-3510","COUNTY":"JEFFERSON","SITE SMSA":"","FEDERAL FACILITY":"N","NPL STATUS":"Not on the NPL","CORPORATELINK":"No","RECORD OF DECISION (ROD) INFO":"No","EPA REGIONALLINK":"No"}},{"type":"Feature","geometry":{"type":"Point","coordinates":[-87.05189,34.632373]},"properties":{"CERCLIS EPA ID":"ALR000037929","SITE NAME":"BIOLOGICAL PROCESSORS OF ALABAMA","ADDRESS":"611 FINLEY ISLAND ROADDECATUR, AL  35601-7568","COUNTY":"MORGAN","SITE SMSA":"","FEDERAL FACILITY":"N","NPL STATUS":"Not on the NPL","CORPORATELINK":"No","RECORD OF DECISION (ROD) INFO":"No","EPA REGIONALLINK":"No"}},{"type":"Feature","geometry":{"type":"Point","coordinates":[-86.60286,34.71139]},"properties":{"CERCLIS EPA ID":"ALD009840653","SITE NAME":"BLUE JOHN CO","ADDRESS":"2800 BOB WALLACE AVENUEHUNTSVILLE, AL  35805-4154","COUNTY":"MADISON","SITE SMSA":"","FEDERAL FACILITY":"N","NPL STATUS":"Not on the NPL","CORPORATELINK":"No","RECORD OF DECISION (ROD) INFO":"No","EPA REGIONALLINK":"No"}},{"type":"Feature","geometry":{"type":"Point","coordinates":[-85.767734,34.242552]},"properties":{"CERCLIS EPA ID":"ALSFN0407036","SITE NAME":"BLYTHE DRUG LAB","ADDRESS":"2105 SAND ROCK AVENUESAND ROCK, AL  35983-4329","COUNTY":"CHEROKEE","SITE SMSA":"","FEDERAL FACILITY":"N","NPL STATUS":"Not on the NPL","CORPORATELINK":"No","RECORD OF DECISION (ROD) INFO":"No","EPA REGIONALLINK":"No"}},{"type":"Feature","geometry":{"type":"Point","coordinates":[-87.058342,34.639926]},"properties":{"CERCLIS EPA ID":"ALN000407852","SITE NAME":"BP AMOCO CHEMICALS","ADDRESS":"1400 FINLEY ISLAND ROADDECATUR, AL  35601","COUNTY":"MORGAN","SITE SMSA":"","FEDERAL FACILITY":"N","NPL STATUS":"Not on the NPL","CORPORATELINK":"No","RECORD OF DECISION (ROD) INFO":"No","EPA REGIONALLINK":"No"}},{"type":"Feature","geometry":{"type":"Point","coordinates":[-85.4644,31.139575]},"properties":{"CERCLIS EPA ID":"ALN000410926","SITE NAME":"BRANTON RD MERCURY SPILL","ADDRESS":"321 BRANTON RDTAYLOR, AL  36301","COUNTY":"HOUSTON","SITE SMSA":"","FEDERAL FACILITY":"N","NPL STATUS":"Not on the NPL","CORPORATELINK":"No","RECORD OF DECISION (ROD) INFO":"No","EPA REGIONALLINK":"No"}},{"type":"Feature","geometry":{"type":"Point","coordinates":[-85.836069,33.56775]},"properties":{"CERCLIS EPA ID":"ALN000407336","SITE NAME":"BROCK MOUNTAIN DRUMS","ADDRESS":"228 DEMPSEY LANEOXFORD, AL  36203-8763","COUNTY":"CALHOUN","SITE SMSA":"","FEDERAL FACILITY":"N","NPL STATUS":"Not on the NPL","CORPORATELINK":"No","RECORD OF DECISION (ROD) INFO":"No","EPA REGIONALLINK":"No"}},{"type":"Feature","geometry":{"type":"Point","coordinates":[-86.35565,32.367838]},"properties":{"CERCLIS EPA ID":"AL0002368488","SITE NAME":"BUCHANAN LUMBER","ADDRESS":"455 FLACK ROADMONTGOMERY, AL  36108","COUNTY":"MONTGOMERY","SITE SMSA":"","FEDERAL FACILITY":"N","NPL STATUS":"Not on the NPL","CORPORATELINK":"No","RECORD OF DECISION (ROD) INFO":"No","EPA REGIONALLINK":"No"}},{"type":"Feature","geometry":{"type":"Point","coordinates":[-86.97851,32.41568]},"properties":{"CERCLIS EPA ID":"ALD063680367","SITE NAME":"BWD AUTOMOTIVE","ADDRESS":"4555 WATER AVENUESELMA, AL  36703-8707","COUNTY":"DALLAS","SITE SMSA":"","FEDERAL FACILITY":"N","NPL STATUS":"Not on the NPL","CORPORATELINK":"No","RECORD OF DECISION (ROD) INFO":"No","EPA REGIONALLINK":"No"}},{"type":"Feature","geometry":{"type":"Point","coordinates":[-86.534913,33.539871]},"properties":{"CERCLIS EPA ID":"ALD004029633","SITE NAME":"CALDWELL FOUNDRY","ADDRESS":"8616 DUNNAVANT ROADLEEDS, AL  35094","COUNTY":"JEFFERSON","SITE SMSA":"1000","FEDERAL FACILITY":"N","NPL STATUS":"Not on the NPL","CORPORATELINK":"No","RECORD OF DECISION (ROD) INFO":"No","EPA REGIONALLINK":"No"}},{"type":"Feature","geometry":{"type":"Point","coordinates":[-86.008962,33.78468]},"properties":{"CERCLIS EPA ID":"ALN000410912","SITE NAME":"CALHOUN COUNTY TORNADO DRUM RESPONSE","ADDRESS":"2440 HARTS FERRY ROADOHATCHEE, AL  36271","COUNTY":"CALHOUN","SITE SMSA":"","FEDERAL FACILITY":"N","NPL STATUS":"Not on the NPL","CORPORATELINK":"No","RECORD OF DECISION (ROD) INFO":"No","EPA REGIONALLINK":"No"}},{"type":"Feature","geometry":{"type":"Point","coordinates":[-85.640556,33.531667]},"properties":{"CERCLIS EPA ID":"ALN000409857","SITE NAME":"CAMMCO INC","ADDRESS":"7805 US HIGHWAY 431HEFLIN, AL  36264","COUNTY":"CLEBURNE","SITE SMSA":"","FEDERAL FACILITY":"N","NPL STATUS":"Not on the NPL","CORPORATELINK":"No","RECORD OF DECISION (ROD) INFO":"No","EPA REGIONALLINK":"No"}},{"type":"Feature","geometry":{"type":"Point","coordinates":[-86.306,32.382]},"properties":{"CERCLIS EPA ID":"AL0001058056","SITE NAME":"CAPITOL CITY PLUME","ADDRESS":"MADISON AVENUEMONTGOMERY, AL  36109","COUNTY":"MONTGOMERY","SITE SMSA":"5240","FEDERAL FACILITY":"N","NPL STATUS":"Proposed for NPL","CORPORATELINK":"No","RECORD OF DECISION (ROD) INFO":"No","EPA REGIONALLINK":"No"}},{"type":"Feature","geometry":{"type":"Point","coordinates":[-85.832911,33.607658]},"properties":{"CERCLIS EPA ID":"ALSFN0406945","SITE NAME":"CENTER STAR MFG. SITE","ADDRESS":"207 HAMRIC DRIVEOXFORD, AL  36203","COUNTY":"CALHOUN","SITE SMSA":"","FEDERAL FACILITY":"N","NPL STATUS":"Not on the NPL","CORPORATELINK":"No","RECORD OF DECISION (ROD) INFO":"No","EPA REGIONALLINK":"No"}},{"type":"Feature","geometry":{"type":"Point","coordinates":[-86.461365,32.78278]},"properties":{"CERCLIS EPA ID":"ALSFN0406981","SITE NAME":"CENTRAL ALABAMA OIL & POLLUTION CONTROL","ADDRESS":"148 COUNTY ROAD 523VERBENA, AL  36091","COUNTY":"CHILTON","SITE SMSA":"","FEDERAL FACILITY":"N","NPL STATUS":"Not on the NPL","CORPORATELINK":"No","RECORD OF DECISION (ROD) INFO":"No","EPA REGIONALLINK":"No"}},{"type":"Feature","geometry":{"type":"Point","coordinates":[-87.010958,32.409644]},"properties":{"CERCLIS EPA ID":"ALD000608075","SITE NAME":"CHAPMAN CHEMICAL COMPANY","ADDRESS":"ONE RANGE STREETSELMA, AL  36703-3100","COUNTY":"DALLAS","SITE SMSA":"","FEDERAL FACILITY":"N","NPL STATUS":"Not on the NPL","CORPORATELINK":"No","RECORD OF DECISION (ROD) INFO":"No","EPA REGIONALLINK":"No"}},{"type":"Feature","geometry":{"type":"Point","coordinates":[-87.833324,32.477376]},"properties":{"CERCLIS EPA ID":"ALD981754328","SITE NAME":"CHEM FOUR LTD","ADDRESS":"306 INDUSTRIAL PARK DRIVE NORTHDEMOPOLIS, AL  36732","COUNTY":"MARENGO","SITE SMSA":"","FEDERAL FACILITY":"N","NPL STATUS":"Not on the NPL","CORPORATELINK":"No","RECORD OF DECISION (ROD) INFO":"No","EPA REGIONALLINK":"No"}},{"type":"Feature","geometry":{"type":"Point","coordinates":[-86.469803,33.243401]},"properties":{"CERCLIS EPA ID":"ALD063687016","SITE NAME":"CLEAN COAL RESEARCH CENTER SOUTHERN COMPANY SERVICES INC.","ADDRESS":"HIGHWAY 25 NORTHWILSONVILLE, AL  35186","COUNTY":"SHELBY","SITE SMSA":"1000","FEDERAL FACILITY":"N","NPL STATUS":"Not on the NPL","CORPORATELINK":"No","RECORD OF DECISION (ROD) INFO":"No","EPA REGIONALLINK":"No"}},{"type":"Feature","geometry":{"type":"Point","coordinates":[-85.925219,33.590058]},"properties":{"CERCLIS EPA ID":"ALN000410928","SITE NAME":"COLDWATER RD DUMPING","ADDRESS":"390 COLDWATER RDANNISTON, AL  36201","COUNTY":"CALHOUN","SITE SMSA":"","FEDERAL FACILITY":"N","NPL STATUS":"Not on the NPL","CORPORATELINK":"No","RECORD OF DECISION (ROD) INFO":"No","EPA REGIONALLINK":"No"}},{"type":"Feature","geometry":{"type":"Point","coordinates":[-84.97257,32.43372]},"properties":{"CERCLIS EPA ID":"ALN000407310","SITE NAME":"CONTINENTAL CARBON CO PHENIX CITY","ADDRESS":"1500 EAST STATE DOCKS ROADPHENIX CITY, AL  36869-7680","COUNTY":"RUSSELL","SITE SMSA":"","FEDERAL FACILITY":"N","NPL STATUS":"Not on the NPL","CORPORATELINK":"No","RECORD OF DECISION (ROD) INFO":"No","EPA REGIONALLINK":"No"}},{"type":"Feature","geometry":{"type":"Point","coordinates":[-87.21103,33.73412]},"properties":{"CERCLIS EPA ID":"ALN000411023","SITE NAME":"CORDOVA MERCURY SPILL","ADDRESS":"189 DATE HILL ROADCORDOVA, AL  35508","COUNTY":"WALKER","SITE SMSA":"","FEDERAL FACILITY":"N","NPL STATUS":"Not on the NPL","CORPORATELINK":"No","RECORD OF DECISION (ROD) INFO":"No","EPA REGIONALLINK":"No"}},{"type":"Feature","geometry":{"type":"Point","coordinates":[-86.12029,33.99146]},"properties":{"CERCLIS EPA ID":"ALSFN0406978","SITE NAME":"CRAFT PLATING CO INC","ADDRESS":"100 UTILITY AVENUEATTALLA, AL  35954-9212","COUNTY":"ETOWAH","SITE SMSA":"","FEDERAL FACILITY":"N","NPL STATUS":"Not on the NPL","CORPORATELINK":"No","RECORD OF DECISION (ROD) INFO":"No","EPA REGIONALLINK":"No"}},{"type":"Feature","geometry":{"type":"Point","coordinates":[-88.22223,30.53083]},"properties":{"CERCLIS EPA ID":"ALN000410956","SITE NAME":"CREEL EXCAVATION","ADDRESS":"7800 COUNTY FARM ROADIRVINGTON, AL  36544","COUNTY":"MOBILE","SITE SMSA":"","FEDERAL FACILITY":"N","NPL STATUS":"Not on the NPL","CORPORATELINK":"No","RECORD OF DECISION (ROD) INFO":"No","EPA REGIONALLINK":"No"}},{"type":"Feature","geometry":{"type":"Point","coordinates":[-86.309177,32.388464]},"properties":{"CERCLIS EPA ID":"ALD982124315","SITE NAME":"CSX TRANSPORTATION-MECHANICAL DEPT","ADDRESS":"815 NORTH COURT STREETMONTGOMERY, AL  36104-2303","COUNTY":"MONTGOMERY","SITE SMSA":"","FEDERAL FACILITY":"N","NPL STATUS":"Not on the NPL","CORPORATELINK":"No","RECORD OF DECISION (ROD) INFO":"No","EPA REGIONALLINK":"No"}},{"type":"Feature","geometry":{"type":"Point","coordinates":[-87.828642,34.27732]},"properties":{"CERCLIS EPA ID":"ALD000652800","SITE NAME":"CULPEPPER WOOD PRESERVERS","ADDRESS":"HIGH WAY 172 WESTHACKLEBURG, AL  35564","COUNTY":"MARION","SITE SMSA":"","FEDERAL FACILITY":"N","NPL STATUS":"Not on the NPL","CORPORATELINK":"No","RECORD OF DECISION (ROD) INFO":"No","EPA REGIONALLINK":"No"}},{"type":"Feature","geometry":{"type":"Point","coordinates":[-86.568989,31.986679]},"properties":{"CERCLIS EPA ID":"ALD003383254","SITE NAME":"CUMMINGS SIGNS INC","ADDRESS":"10 INDUSTRIAL PKWYFORT DEPOSIT, AL  36032-4042","COUNTY":"LOWNDES","SITE SMSA":"","FEDERAL FACILITY":"N","NPL STATUS":"Not on the NPL","CORPORATELINK":"No","RECORD OF DECISION (ROD) INFO":"No","EPA REGIONALLINK":"No"}},{"type":"Feature","geometry":{"type":"Point","coordinates":[-86.463624,32.429083]},"properties":{"CERCLIS EPA ID":"ALD095696308","SITE NAME":"DEEPSOUTH PLATING & SERVICE CO.","ADDRESS":"914 INDUSTRIAL PARK ROADPRATTVILLE, AL  36067-4885","COUNTY":"AUTAUGA","SITE SMSA":"","FEDERAL FACILITY":"N","NPL STATUS":"Not on the NPL","CORPORATELINK":"No","RECORD OF DECISION (ROD) INFO":"No","EPA REGIONALLINK":"No"}},{"type":"Feature","geometry":{"type":"Point","coordinates":[-85.83071,33.63312]},"properties":{"CERCLIS EPA ID":"ALSFN0407153","SITE NAME":"DEFENSE RESEARCH","ADDRESS":"1205 FRONT STREETANNISTON, AL  36201-8262","COUNTY":"CALHOUN","SITE SMSA":"","FEDERAL FACILITY":"N","NPL STATUS":"Not on the NPL","CORPORATELINK":"No","RECORD OF DECISION (ROD) INFO":"No","EPA REGIONALLINK":"No"}},{"type":"Feature","geometry":{"type":"Point","coordinates":[-88.10872,30.754055]},"properties":{"CERCLIS EPA ID":"AL0000972877","SITE NAME":"DERIDDER CHEMICAL CO","ADDRESS":"3220 WEST MAIN STWHISTER, AL  36612","COUNTY":"MOBILE","SITE SMSA":"5160","FEDERAL FACILITY":"N","NPL STATUS":"Not on the NPL","CORPORATELINK":"No","RECORD OF DECISION (ROD) INFO":"No","EPA REGIONALLINK":"No"}},{"type":"Feature","geometry":{"type":"Point","coordinates":[-86.8048,33.54967]},"properties":{"CERCLIS EPA ID":"AL0002368595","SITE NAME":"DIRECT RAIL HEAD/MOORE LUMBER","ADDRESS":"3101 27TH AVEBIRMINGHAM, AL  35207-5101","COUNTY":"JEFFERSON","SITE SMSA":"","FEDERAL FACILITY":"N","NPL STATUS":"Not on the NPL","CORPORATELINK":"No","RECORD OF DECISION (ROD) INFO":"No","EPA REGIONALLINK":"No"}},{"type":"Feature","geometry":{"type":"Point","coordinates":[-86.38716,34.61833]},"properties":{"CERCLIS EPA ID":"ALD983167131","SITE NAME":"DON BRIDGES PROPERTY","ADDRESS":"1969 CHERRY TREE ROADGURLEY, AL  35748-9318","COUNTY":"MADISON","SITE SMSA":"3440","FEDERAL FACILITY":"N","NPL STATUS":"Not on the NPL","CORPORATELINK":"No","RECORD OF DECISION (ROD) INFO":"No","EPA REGIONALLINK":"No"}},{"type":"Feature","geometry":{"type":"Point","coordinates":[-85.9939,34.00843]},"properties":{"CERCLIS EPA ID":"ALSFN0407038","SITE NAME":"EAST GADSDEN DEVELOPMENT PROJECT","ADDRESS":"E. BROAD STREET & HOOD AVENUEGADSDEN, AL  35903","COUNTY":"ETOWAH","SITE SMSA":"","FEDERAL FACILITY":"N","NPL STATUS":"Not on the NPL","CORPORATELINK":"No","RECORD OF DECISION (ROD) INFO":"No","EPA REGIONALLINK":"No"}},{"type":"Feature","geometry":{"type":"Point","coordinates":[-86.8946,33.1385]},"properties":{"CERCLIS EPA ID":"ALD055158992","SITE NAME":"ELECTRICAL SPECIALTY PRODUCTS COMPANY","ADDRESS":"HIGHWAY 25 SOUTHMONTEVALLO, AL  35115","COUNTY":"SHELBY","SITE SMSA":"1000","FEDERAL FACILITY":"N","NPL STATUS":"Not on the NPL","CORPORATELINK":"No","RECORD OF DECISION (ROD) INFO":"No","EPA REGIONALLINK":"No"}},{"type":"Feature","geometry":{"type":"Point","coordinates":[-86.00204,34.01232]},"properties":{"CERCLIS EPA ID":"AL0001575026","SITE NAME":"ESQUIRE CLEANERS","ADDRESS":"BROAD STREETGADSDEN, AL  35901","COUNTY":"ETOWAH","SITE SMSA":"2880","FEDERAL FACILITY":"N","NPL STATUS":"Not on the NPL","CORPORATELINK":"No","RECORD OF DECISION (ROD) INFO":"No","EPA REGIONALLINK":"No"}},{"type":"Feature","geometry":{"type":"Point","coordinates":[-86.107222,34.071944]},"properties":{"CERCLIS EPA ID":"AL0000059147","SITE NAME":"ETOWAH COUNTY ESWDA LANDFILL","ADDRESS":"NOBLE HILL ROADGADSDEN, AL  35901","COUNTY":"ETOWAH","SITE SMSA":"2880","FEDERAL FACILITY":"N","NPL STATUS":"Not on the NPL","CORPORATELINK":"No","RECORD OF DECISION (ROD) INFO":"No","EPA REGIONALLINK":"No"}},{"type":"Feature","geometry":{"type":"Point","coordinates":[-86.68947,33.61414]},"properties":{"CERCLIS EPA ID":"ALN000410848","SITE NAME":"FIVE MILE CREEK","ADDRESS":"FIVE MILE CREEK WATERSHEDBIRMINGHAM, AL  35207","COUNTY":"JEFFERSON","SITE SMSA":"","FEDERAL FACILITY":"N","NPL STATUS":"Not on the NPL","CORPORATELINK":"No","RECORD OF DECISION (ROD) INFO":"No","EPA REGIONALLINK":"No"}},{"type":"Feature","geometry":{"type":"Point","coordinates":[-86.35953,34.69377]},"properties":{"CERCLIS EPA ID":"ALD983166588","SITE NAME":"FLINT RIVER BRIDGE DRUM","ADDRESS":"HIGHWAY 72GURLEY, AL  35748","COUNTY":"MADISON","SITE SMSA":"3440","FEDERAL FACILITY":"N","NPL STATUS":"Not on the NPL","CORPORATELINK":"No","RECORD OF DECISION (ROD) INFO":"No","EPA REGIONALLINK":"No"}},{"type":"Feature","geometry":{"type":"Point","coordinates":[-87.6547,34.8295]},"properties":{"CERCLIS EPA ID":"ALN000410051","SITE NAME":"FLORENCE  SANITARY LANDFILL","ADDRESS":"SAVANNAH HWY & WATERLOO RD.FLORENCE, AL  35630","COUNTY":"LAUDERDALE","SITE SMSA":"","FEDERAL FACILITY":"N","NPL STATUS":"Not on the NPL","CORPORATELINK":"No","RECORD OF DECISION (ROD) INFO":"No","EPA REGIONALLINK":"No"}},{"type":"Feature","geometry":{"type":"Point","coordinates":[-87.65957,34.796959]},"properties":{"CERCLIS EPA ID":"AL0001923341","SITE NAME":"FLORENCE GAS WORKS","ADDRESS":"WATER STREETFLORENCE, AL  35630","COUNTY":"LAUDERDALE","SITE SMSA":"","FEDERAL FACILITY":"N","NPL STATUS":"Not on the NPL","CORPORATELINK":"No","RECORD OF DECISION (ROD) INFO":"No","EPA REGIONALLINK":"No"}},{"type":"Feature","geometry":{"type":"Point","coordinates":[-86.251414,33.15764]},"properties":{"CERCLIS EPA ID":"ALN000407676","SITE NAME":"FORD, BOBBY-DRUM SITE","ADDRESS":"35 BAY STREET EASTSYLACAUGA, AL  35150","COUNTY":"TALLADEGA","SITE SMSA":"","FEDERAL FACILITY":"N","NPL STATUS":"Not on the NPL","CORPORATELINK":"No","RECORD OF DECISION (ROD) INFO":"No","EPA REGIONALLINK":"No"}},{"type":"Feature","geometry":{"type":"Point","coordinates":[-87.71769,34.50557]},"properties":{"CERCLIS EPA ID":"ALSFN0406977","SITE NAME":"FORMER DOT DISTRICT OFFICE","ADDRESS":"COURTLAND AVE. & PARK BLVD.RUSSELLVILLE, AL  35653","COUNTY":"FRANKLIN","SITE SMSA":"","FEDERAL FACILITY":"N","NPL STATUS":"Not on the NPL","CORPORATELINK":"No","RECORD OF DECISION (ROD) INFO":"No","EPA REGIONALLINK":"No"}},{"type":"Feature","geometry":{"type":"Point","coordinates":[-87.604011,34.762319]},"properties":{"CERCLIS EPA ID":"ALD004017497","SITE NAME":"FORMER FORD SHEFFIELD PLANT","ADDRESS":"2019 FORD RDSHEFFIELD, AL  35660","COUNTY":"COLBERT","SITE SMSA":"2650","FEDERAL FACILITY":"N","NPL STATUS":"Not on the NPL","CORPORATELINK":"No","RECORD OF DECISION (ROD) INFO":"No","EPA REGIONALLINK":"No"}},{"type":"Feature","geometry":{"type":"Point","coordinates":[-87.52683,30.48722]},"properties":{"CERCLIS EPA ID":"AL0001197409","SITE NAME":"FORMER HANSEL C. HODGES PROPERTY","ADDRESS":"17989 HANSEL HODGES ROADELBERTA, AL  36530-3216","COUNTY":"BALDWIN","SITE SMSA":"5160","FEDERAL FACILITY":"N","NPL STATUS":"Not on the NPL","CORPORATELINK":"No","RECORD OF DECISION (ROD) INFO":"No","EPA REGIONALLINK":"No"}},{"type":"Feature","geometry":{"type":"Point","coordinates":[-87.6553,34.80268]},"properties":{"CERCLIS EPA ID":"ALD983185810","SITE NAME":"FOUNDRY OF THE SHOALS INC","ADDRESS":"201 COMMERCE STREETFLORENCE, AL  35630-4984","COUNTY":"LAUDERDALE","SITE SMSA":"","FEDERAL FACILITY":"N","NPL STATUS":"Not on the NPL","CORPORATELINK":"No","RECORD OF DECISION (ROD) INFO":"No","EPA REGIONALLINK":"No"}},{"type":"Feature","geometry":{"type":"Point","coordinates":[-87.638914,34.234821]},"properties":{"CERCLIS EPA ID":"ALD045632312","SITE NAME":"FULLCO LUMBER COMPANY INCORPORATED","ADDRESS":"HIGHWAY 5 NORTHHALEYVILLE, AL  35565","COUNTY":"WINSTON","SITE SMSA":"","FEDERAL FACILITY":"N","NPL STATUS":"Not on the NPL","CORPORATELINK":"No","RECORD OF DECISION (ROD) INFO":"No","EPA REGIONALLINK":"No"}},{"type":"Feature","geometry":{"type":"Point","coordinates":[-86.42405,34.84397]},"properties":{"CERCLIS EPA ID":"AL0000132662","SITE NAME":"FUSSY HILL DRUM DUMP","ADDRESS":"461 FUSSY HILL ROADNEW MARKET, AL  35761-8734","COUNTY":"MADISON","SITE SMSA":"3440","FEDERAL FACILITY":"N","NPL STATUS":"Not on the NPL","CORPORATELINK":"No","RECORD OF DECISION (ROD) INFO":"No","EPA REGIONALLINK":"No"}},{"type":"Feature","geometry":{"type":"Point","coordinates":[-87.619839,34.227629]},"properties":{"CERCLIS EPA ID":"AL0001580430","SITE NAME":"G&W TIRES","ADDRESS":"1204 21ST ST.HALEYVILLE, AL  35565","COUNTY":"WINSTON","SITE SMSA":"","FEDERAL FACILITY":"N","NPL STATUS":"Not on the NPL","CORPORATELINK":"No","RECORD OF DECISION (ROD) INFO":"No","EPA REGIONALLINK":"No"}},{"type":"Feature","geometry":{"type":"Point","coordinates":[-86.006761,34.01458]},"properties":{"CERCLIS EPA ID":"ALN000407343","SITE NAME":"GADSDEN MANUFACTURING GAS PLANT","ADDRESS":"624 BROAD STREETGADSDEN, AL  35901-3722","COUNTY":"ETOWAH","SITE SMSA":"","FEDERAL FACILITY":"N","NPL STATUS":"Not on the NPL","CORPORATELINK":"No","RECORD OF DECISION (ROD) INFO":"No","EPA REGIONALLINK":"No"}},{"type":"Feature","geometry":{"type":"Point","coordinates":[-88.1275,30.831111]},"properties":{"CERCLIS EPA ID":"ALD095697058","SITE NAME":"GAMXX ENERGY INC","ADDRESS":"HAMILTON BOULEVARDTHEODORE, AL  36582","COUNTY":"MOBILE","SITE SMSA":"","FEDERAL FACILITY":"N","NPL STATUS":"Not on the NPL","CORPORATELINK":"No","RECORD OF DECISION (ROD) INFO":"No","EPA REGIONALLINK":"No"}},{"type":"Feature","geometry":{"type":"Point","coordinates":[-86.800955,33.528903]},"properties":{"CERCLIS EPA ID":"ALN000410676","SITE NAME":"GAO 217 - ROBERT SMITH COMPANY","ADDRESS":"925 NORTH 28TH STREETBIRMINGHAM, AL  35203","COUNTY":"JEFFERSON","SITE SMSA":"","FEDERAL FACILITY":"N","NPL STATUS":"Not on the NPL","CORPORATELINK":"No","RECORD OF DECISION (ROD) INFO":"No","EPA REGIONALLINK":"No"}},{"type":"Feature","geometry":{"type":"Point","coordinates":[-87.700074,34.264992]},"properties":{"CERCLIS EPA ID":"ALD037483369","SITE NAME":"GERALD METALS INCORPORATED","ADDRESS":"155 COUNTY HIGHWAY 62BEAR CREEK, AL  35543","COUNTY":"MARION","SITE SMSA":"","FEDERAL FACILITY":"N","NPL STATUS":"Not on the NPL","CORPORATELINK":"No","RECORD OF DECISION (ROD) INFO":"No","EPA REGIONALLINK":"No"}},{"type":"Feature","geometry":{"type":"Point","coordinates":[-85.933433,33.955398]},"properties":{"CERCLIS EPA ID":"AL0001923374","SITE NAME":"GLENCOE BATTERY SHOP","ADDRESS":"219 WEST MAIN STREETGLENCOE, AL  35905","COUNTY":"ETOWAH","SITE SMSA":"","FEDERAL FACILITY":"N","NPL STATUS":"Not on the NPL","CORPORATELINK":"No","RECORD OF DECISION (ROD) INFO":"No","EPA REGIONALLINK":"No"}},{"type":"Feature","geometry":{"type":"Point","coordinates":[-85.85138,33.75911]},"properties":{"CERCLIS EPA ID":"ALN000411018","SITE NAME":"GLENVALE ROAD MERCURY SPILL","ADDRESS":"375 GLENVALE ROADALEXANDRIA, AL  63250","COUNTY":"CALHOUN","SITE SMSA":"","FEDERAL FACILITY":"N","NPL STATUS":"Not on the NPL","CORPORATELINK":"No","RECORD OF DECISION (ROD) INFO":"No","EPA REGIONALLINK":"No"}},{"type":"Feature","geometry":{"type":"Point","coordinates":[-85.385108,31.228859]},"properties":{"CERCLIS EPA ID":"ALN000410411","SITE NAME":"GOLDEN PEANUT NAOH SPILL","ADDRESS":"805 E. NEWTON STREETDOTHAN, AL  36303-4759","COUNTY":"HOUSTON","SITE SMSA":"","FEDERAL FACILITY":"N","NPL STATUS":"Not on the NPL","CORPORATELINK":"No","RECORD OF DECISION (ROD) INFO":"No","EPA REGIONALLINK":"No"}},{"type":"Feature","geometry":{"type":"Point","coordinates":[-86.69513,33.54506]},"properties":{"CERCLIS EPA ID":"ALN000410392","SITE NAME":"GRACE CONSTRUCTION PRODUCTS","ADDRESS":"2601 COMMERCE BLVD.IRONDALE, AL  35210","COUNTY":"JEFFERSON","SITE SMSA":"","FEDERAL FACILITY":"N","NPL STATUS":"Not on the NPL","CORPORATELINK":"No","RECORD OF DECISION (ROD) INFO":"No","EPA REGIONALLINK":"No"}},{"type":"Feature","geometry":{"type":"Point","coordinates":[-86.823617,33.188385]},"properties":{"CERCLIS EPA ID":"AL0001909829","SITE NAME":"GRADCO, INC","ADDRESS":"7341 CAHABA VALLEY RD, HWY 119BIRMINGHAM, AL  35242-6302","COUNTY":"SHELBY","SITE SMSA":"","FEDERAL FACILITY":"N","NPL STATUS":"Not on the NPL","CORPORATELINK":"No","RECORD OF DECISION (ROD) INFO":"No","EPA REGIONALLINK":"No"}},{"type":"Feature","geometry":{"type":"Point","coordinates":[-88.105053,30.633492]},"properties":{"CERCLIS EPA ID":"ALD008214090","SITE NAME":"GRAND BUMPER & WHEEL INC","ADDRESS":"1654 NAVCO RD.MOBILE, AL  366052697","COUNTY":"MOBILE","SITE SMSA":"5160","FEDERAL FACILITY":"N","NPL STATUS":"Not on the NPL","CORPORATELINK":"No","RECORD OF DECISION (ROD) INFO":"No","EPA REGIONALLINK":"No"}},{"type":"Feature","geometry":{"type":"Point","coordinates":[-86.63683,31.82473]},"properties":{"CERCLIS EPA ID":"AL0001909852","SITE NAME":"GREENVILLE FERTILIZER","ADDRESS":"100 LONG STREETGREENVILLE, AL  36037-2437","COUNTY":"BUTLER","SITE SMSA":"","FEDERAL FACILITY":"N","NPL STATUS":"Not on the NPL","CORPORATELINK":"No","RECORD OF DECISION (ROD) INFO":"No","EPA REGIONALLINK":"No"}},{"type":"Feature","geometry":{"type":"Point","coordinates":[-86.258753,33.344181]},"properties":{"CERCLIS EPA ID":"ALN000409758","SITE NAME":"GRIST MILL HERBICIDE","ADDRESS":"4845 GRIST MILL ROADALPINE, AL  35014-5775","COUNTY":"TALLADEGA","SITE SMSA":"","FEDERAL FACILITY":"N","NPL STATUS":"Not on the NPL","CORPORATELINK":"No","RECORD OF DECISION (ROD) INFO":"No","EPA REGIONALLINK":"No"}},{"type":"Feature","geometry":{"type":"Point","coordinates":[-86.91086,33.49767]},"properties":{"CERCLIS EPA ID":"ALSFN0406887","SITE NAME":"H&G BATTERY SITE","ADDRESS":"3701 COMMERCE AVENUEFAIRFIELD, AL  35064-1439","COUNTY":"JEFFERSON","SITE SMSA":"","FEDERAL FACILITY":"N","NPL STATUS":"Not on the NPL","CORPORATELINK":"No","RECORD OF DECISION (ROD) INFO":"No","EPA REGIONALLINK":"No"}},{"type":"Feature","geometry":{"type":"Point","coordinates":[-85.831861,33.607909]},"properties":{"CERCLIS EPA ID":"ALD094472651","SITE NAME":"HAGER COMPANIES","ADDRESS":"310 HAMRIC DRIVEOXFORD, AL  36203-2357","COUNTY":"CALHOUN","SITE SMSA":"450","FEDERAL FACILITY":"N","NPL STATUS":"Not on the NPL","CORPORATELINK":"No","RECORD OF DECISION (ROD) INFO":"No","EPA REGIONALLINK":"No"}},{"type":"Feature","geometry":{"type":"Point","coordinates":[-86.45402,33.31518]},"properties":{"CERCLIS EPA ID":"ALN000410703","SITE NAME":"HARPERSVILLE DERAILMENT","ADDRESS":"DEAD HOLLOW RDHARPERSVILLE, AL  35078","COUNTY":"SHELBY","SITE SMSA":"","FEDERAL FACILITY":"N","NPL STATUS":"Not on the NPL","CORPORATELINK":"No","RECORD OF DECISION (ROD) INFO":"No","EPA REGIONALLINK":"No"}},{"type":"Feature","geometry":{"type":"Point","coordinates":[-86.043601,34.018382]},"properties":{"CERCLIS EPA ID":"ALD004014973","SITE NAME":"HARSCO METALS PLANT 1","ADDRESS":"174 SOUTH 26TH STREETGADSDEN, AL  35904-1935","COUNTY":"ETOWAH","SITE SMSA":"2880","FEDERAL FACILITY":"N","NPL STATUS":"Not on the NPL","CORPORATELINK":"No","RECORD OF DECISION (ROD) INFO":"No","EPA REGIONALLINK":"No"}},{"type":"Feature","geometry":{"type":"Point","coordinates":[-85.967664,31.795209]},"properties":{"CERCLIS EPA ID":"ALN000407341","SITE NAME":"HB & G","ADDRESS":"1015 BRUNDIDGE BOULEVARDTROY, AL  36081-3109","COUNTY":"PIKE","SITE SMSA":"","FEDERAL FACILITY":"N","NPL STATUS":"Not on the NPL","CORPORATELINK":"No","RECORD OF DECISION (ROD) INFO":"No","EPA REGIONALLINK":"No"}},{"type":"Feature","geometry":{"type":"Point","coordinates":[-86.87098,33.27753]},"properties":{"CERCLIS EPA ID":"ALN000410910","SITE NAME":"HELENA MIDDLE SCHOOL","ADDRESS":"1299 HILLSBORO PARKWAYHELENA, AL  35080-6825","COUNTY":"SHELBY COUNTY","SITE SMSA":"","FEDERAL FACILITY":"N","NPL STATUS":"Not on the NPL","CORPORATELINK":"No","RECORD OF DECISION (ROD) INFO":"No","EPA REGIONALLINK":"No"}},{"type":"Feature","geometry":{"type":"Point","coordinates":[-88.060988,30.703765]},"properties":{"CERCLIS EPA ID":"ALD980842637","SITE NAME":"HICKORY STREET LANDFILL","ADDRESS":"JCT HICKORY & CHINQUAPIN STMOBILE, AL  36603","COUNTY":"MOBILE","SITE SMSA":"5160","FEDERAL FACILITY":"N","NPL STATUS":"Not on the NPL","CORPORATELINK":"No","RECORD OF DECISION (ROD) INFO":"No","EPA REGIONALLINK":"No"}},{"type":"Feature","geometry":{"type":"Point","coordinates":[-86.3621,32.35454]},"properties":{"CERCLIS EPA ID":"ALD004027579","SITE NAME":"HIRSCHFELD INDUSTRIES LP","ADDRESS":"1085 PARKER STREETMONTGOMERY, AL  36108-2311","COUNTY":"MONTGOMERY","SITE SMSA":"","FEDERAL FACILITY":"N","NPL STATUS":"Not on the NPL","CORPORATELINK":"No","RECORD OF DECISION (ROD) INFO":"No","EPA REGIONALLINK":"No"}},{"type":"Feature","geometry":{"type":"Point","coordinates":[-85.909916,34.007582]},"properties":{"CERCLIS EPA ID":"ALN000410383","SITE NAME":"HOKES BLUFF MERCURY","ADDRESS":"3173 AARON WAYHOKES BLUFF, AL  35903","COUNTY":"ETOWAH","SITE SMSA":"","FEDERAL FACILITY":"N","NPL STATUS":"Not on the NPL","CORPORATELINK":"No","RECORD OF DECISION (ROD) INFO":"No","EPA REGIONALLINK":"No"}},{"type":"Feature","geometry":{"type":"Point","coordinates":[-87.00956,33.45376]},"properties":{"CERCLIS EPA ID":"ALN000407387","SITE NAME":"HUEYTOWN/PATEL DRUMS","ADDRESS":"3290 ALLISON-BONNETT MEMORIAL DRIVEHUEYTOWN, AL  35023-1425","COUNTY":"JEFFERSON","SITE SMSA":"","FEDERAL FACILITY":"N","NPL STATUS":"Not on the NPL","CORPORATELINK":"No","RECORD OF DECISION (ROD) INFO":"No","EPA REGIONALLINK":"No"}},{"type":"Feature","geometry":{"type":"Point","coordinates":[-86.78473,33.52098]},"properties":{"CERCLIS EPA ID":"AL0002304202","SITE NAME":"IDS WAREHOUSE INC","ADDRESS":"3500 1ST AVE S.BIRMINGHAM, AL  35222-1830","COUNTY":"JEFFERSON","SITE SMSA":"","FEDERAL FACILITY":"N","NPL STATUS":"Not on the NPL","CORPORATELINK":"No","RECORD OF DECISION (ROD) INFO":"No","EPA REGIONALLINK":"No"}},{"type":"Feature","geometry":{"type":"Point","coordinates":[-88.12349,30.529655]},"properties":{"CERCLIS EPA ID":"ALN000407542","SITE NAME":"INEOS PHENOL","ADDRESS":"7770 RANGELINE ROADTHEODORE, AL  36582-5212","COUNTY":"MOBILE","SITE SMSA":"","FEDERAL FACILITY":"N","NPL STATUS":"Not on the NPL","CORPORATELINK":"No","RECORD OF DECISION (ROD) INFO":"No","EPA REGIONALLINK":"No"}},{"type":"Feature","geometry":{"type":"Point","coordinates":[-86.63333,33.68888]},"properties":{"CERCLIS EPA ID":"ALD041906173","SITE NAME":"INTERSTATE LEAD COMPANY INCORPORATED","ADDRESS":"1247 BORDEN AVENUELEEDS, AL  35094","COUNTY":"JEFFERSON","SITE SMSA":"1000","FEDERAL FACILITY":"N","NPL STATUS":"Currently on the Final NPL","CORPORATELINK":"No","RECORD OF DECISION (ROD) INFO":"Yes","EPA REGIONALLINK":"No"}},{"type":"Feature","geometry":{"type":"Point","coordinates":[-86.702737,33.410648]},"properties":{"CERCLIS EPA ID":"ALN000410506","SITE NAME":"INVERNESS LANDING MERCURY SPILL","ADDRESS":"3113 INVERNESS LANDINGBIRMINGHAM, AL  35242-3877","COUNTY":"SHELBY","SITE SMSA":"","FEDERAL FACILITY":"N","NPL STATUS":"Not on the NPL","CORPORATELINK":"No","RECORD OF DECISION (ROD) INFO":"No","EPA REGIONALLINK":"No"}},{"type":"Feature","geometry":{"type":"Point","coordinates":[-86.40711,33.52276]},"properties":{"CERCLIS EPA ID":"ALD982142960","SITE NAME":"ISBELL BATTERY COMPANY","ADDRESS":"2469 WOLF CREEK ROAD SOUTHPELL CITY, AL  35128-4521","COUNTY":"SAINT CLAIR","SITE SMSA":"","FEDERAL FACILITY":"N","NPL STATUS":"Not on the NPL","CORPORATELINK":"No","RECORD OF DECISION (ROD) INFO":"No","EPA REGIONALLINK":"No"}},{"type":"Feature","geometry":{"type":"Point","coordinates":[-86.59274,34.74571]},"properties":{"CERCLIS EPA ID":"ALD059903641","SITE NAME":"J & A ENTERPRISES","ADDRESS":"1003 ORCHARD STHUNTSVILLE, AL  35801-5497","COUNTY":"MADISON","SITE SMSA":"3440","FEDERAL FACILITY":"N","NPL STATUS":"Not on the NPL","CORPORATELINK":"No","RECORD OF DECISION (ROD) INFO":"No","EPA REGIONALLINK":"No"}},{"type":"Feature","geometry":{"type":"Point","coordinates":[-86.789741,33.513712]},"properties":{"CERCLIS EPA ID":"ALSFN0407077","SITE NAME":"JAFFE WHOLESALE IRON AND METAL COMPANY","ADDRESS":"2850 5TH AVENUE NORTHBIRMINGHAM, AL  35203","COUNTY":"JEFFERSON","SITE SMSA":"","FEDERAL FACILITY":"N","NPL STATUS":"Not on the NPL","CORPORATELINK":"No","RECORD OF DECISION (ROD) INFO":"No","EPA REGIONALLINK":"No"}},{"type":"Feature","geometry":{"type":"Point","coordinates":[-86.60374,33.62537]},"properties":{"CERCLIS EPA ID":"ALD980845341","SITE NAME":"JBA MANUFACTURING","ADDRESS":"129 PARKWAY DRLEEDS, AL  35094","COUNTY":"JEFFERSON","SITE SMSA":"1000","FEDERAL FACILITY":"N","NPL STATUS":"Not on the NPL","CORPORATELINK":"No","RECORD OF DECISION (ROD) INFO":"No","EPA REGIONALLINK":"No"}},{"type":"Feature","geometry":{"type":"Point","coordinates":[-86.25004,34.51989]},"properties":{"CERCLIS EPA ID":"ALD983179896","SITE NAME":"JOHN LAW HOLLOW DRUMS","ADDRESS":"9TH STREETGRANT, AL  35747","COUNTY":"MARSHALL","SITE SMSA":"3440","FEDERAL FACILITY":"N","NPL STATUS":"Not on the NPL","CORPORATELINK":"No","RECORD OF DECISION (ROD) INFO":"No","EPA REGIONALLINK":"No"}},{"type":"Feature","geometry":{"type":"Point","coordinates":[-87.573807,34.900688]},"properties":{"CERCLIS EPA ID":"ALSFN0406980","SITE NAME":"JOHNSON DRUM SITE","ADDRESS":"369 JOHNSON ROADFLORENCE, AL  35630","COUNTY":"LAUDERDALE","SITE SMSA":"","FEDERAL FACILITY":"N","NPL STATUS":"Not on the NPL","CORPORATELINK":"No","RECORD OF DECISION (ROD) INFO":"No","EPA REGIONALLINK":"No"}},{"type":"Feature","geometry":{"type":"Point","coordinates":[-86.887788,33.524308]},"properties":{"CERCLIS EPA ID":"ALD021254503","SITE NAME":"JONES, GENE T TIRE & BATTERY DISTRIBUTOR INCORPORATED","ADDRESS":"820 AVENUE EBIRMINGHAM, AL  35214","COUNTY":"JEFFERSON","SITE SMSA":"1000","FEDERAL FACILITY":"N","NPL STATUS":"Not on the NPL","CORPORATELINK":"No","RECORD OF DECISION (ROD) INFO":"No","EPA REGIONALLINK":"No"}},{"type":"Feature","geometry":{"type":"Point","coordinates":[-86.84937,33.49128]},"properties":{"CERCLIS EPA ID":"AL0001401322","SITE NAME":"K&M PROPERTIES, LLC","ADDRESS":"925 12TH STREET SWBIRMINGHAM, AL  35211-1908","COUNTY":"JEFFERSON","SITE SMSA":"1000","FEDERAL FACILITY":"N","NPL STATUS":"Not on the NPL","CORPORATELINK":"No","RECORD OF DECISION (ROD) INFO":"No","EPA REGIONALLINK":"No"}},{"type":"Feature","geometry":{"type":"Point","coordinates":[-86.83514,33.53834]},"properties":{"CERCLIS EPA ID":"AL0001206564","SITE NAME":"KEY BATTERY SHOP","ADDRESS":"1109 FINLEY AVENUE NORTHBIRMINGHAM, AL  35204-1151","COUNTY":"JEFFERSON","SITE SMSA":"1000","FEDERAL FACILITY":"N","NPL STATUS":"Not on the NPL","CORPORATELINK":"No","RECORD OF DECISION (ROD) INFO":"No","EPA REGIONALLINK":"No"}},{"type":"Feature","geometry":{"type":"Point","coordinates":[-85.451643,31.280436]},"properties":{"CERCLIS EPA ID":"ALSFN0407178","SITE NAME":"KING CHURCH FURNITURE, INC.","ADDRESS":"3125 OXMOOR INDUSTRIAL BLVD.DOTHAN, AL  36303","COUNTY":"HOUSTON","SITE SMSA":"","FEDERAL FACILITY":"N","NPL STATUS":"Not on the NPL","CORPORATELINK":"No","RECORD OF DECISION (ROD) INFO":"No","EPA REGIONALLINK":"No"}},{"type":"Feature","geometry":{"type":"Point","coordinates":[-87.57652,33.20956]},"properties":{"CERCLIS EPA ID":"ALD983167669","SITE NAME":"KMG-BERNUTH, INC.","ADDRESS":"2901 3RD STREETTUSCALOOSA, AL  35401-1018","COUNTY":"TUSCALOOSA","SITE SMSA":"8600","FEDERAL FACILITY":"N","NPL STATUS":"Not on the NPL","CORPORATELINK":"No","RECORD OF DECISION (ROD) INFO":"No","EPA REGIONALLINK":"No"}},{"type":"Feature","geometry":{"type":"Point","coordinates":[-88.20372,33.55755]},"properties":{"CERCLIS EPA ID":"ALN000407501","SITE NAME":"LAMAR COUNTY DRUM DUMP","ADDRESS":"HWY 96 AND ATKINS ROADMILLPORT, AL  35576","COUNTY":"LAMAR","SITE SMSA":"","FEDERAL FACILITY":"N","NPL STATUS":"Not on the NPL","CORPORATELINK":"No","RECORD OF DECISION (ROD) INFO":"No","EPA REGIONALLINK":"No"}},{"type":"Feature","geometry":{"type":"Point","coordinates":[-87.625278,33.009722]},"properties":{"CERCLIS EPA ID":"ALD004034138","SITE NAME":"LAWTER INTERNATIONAL INC","ADDRESS":"12982 CRACKER ROADMOUNDVILLE, AL  35474","COUNTY":"HALE","SITE SMSA":"","FEDERAL FACILITY":"N","NPL STATUS":"Not on the NPL","CORPORATELINK":"No","RECORD OF DECISION (ROD) INFO":"No","EPA REGIONALLINK":"No"}},{"type":"Feature","geometry":{"type":"Point","coordinates":[-85.83416,33.665]},"properties":{"CERCLIS EPA ID":"ALSFN0407158","SITE NAME":"LEE BROTHERS BRASS FOUNDRY","ADDRESS":"16TH ST. & WALNUT AVE.ANNISTON, AL  36201","COUNTY":"CALHOUN","SITE SMSA":"","FEDERAL FACILITY":"N","NPL STATUS":"Not on the NPL","CORPORATELINK":"No","RECORD OF DECISION (ROD) INFO":"No","EPA REGIONALLINK":"No"}},{"type":"Feature","geometry":{"type":"Point","coordinates":[-86.605,33.51882]},"properties":{"CERCLIS EPA ID":"ALN000407374","SITE NAME":"LEEDS LANDFILL","ADDRESS":"REX LAKE RD. & ZEIGLER  RD.LEEDS, AL  35094","COUNTY":"JEFFERSON","SITE SMSA":"","FEDERAL FACILITY":"N","NPL STATUS":"Not on the NPL","CORPORATELINK":"No","RECORD OF DECISION (ROD) INFO":"No","EPA REGIONALLINK":"No"}},{"type":"Feature","geometry":{"type":"Point","coordinates":[-85.40153,31.25705]},"properties":{"CERCLIS EPA ID":"ALD050983394","SITE NAME":"LILLY INDUSTRIES, INC.","ADDRESS":"2305 INDUSTRIAL RDDOTHAN, AL  36303","COUNTY":"HOUSTON","SITE SMSA":"","FEDERAL FACILITY":"N","NPL STATUS":"Not on the NPL","CORPORATELINK":"No","RECORD OF DECISION (ROD) INFO":"No","EPA REGIONALLINK":"No"}},{"type":"Feature","geometry":{"type":"Point","coordinates":[-86.099972,33.612603]},"properties":{"CERCLIS EPA ID":"ALR000031880","SITE NAME":"LINCOLN METALS CORPORATION","ADDRESS":"248 FOUNDRY RD.LINCOLN, AL  35096-3660","COUNTY":"TALLADEGA","SITE SMSA":"","FEDERAL FACILITY":"N","NPL STATUS":"Not on the NPL","CORPORATELINK":"No","RECORD OF DECISION (ROD) INFO":"No","EPA REGIONALLINK":"No"}},{"type":"Feature","geometry":{"type":"Point","coordinates":[-85.838265,33.674203]},"properties":{"CERCLIS EPA ID":"ALD004018354","SITE NAME":"M & H VALVE CO","ADDRESS":"605 WEST 23RD STREETANNISTON, AL  36201-3075","COUNTY":"CALHOUN","SITE SMSA":"450","FEDERAL FACILITY":"N","NPL STATUS":"Not on the NPL","CORPORATELINK":"No","RECORD OF DECISION (ROD) INFO":"No","EPA REGIONALLINK":"No"}},{"type":"Feature","geometry":{"type":"Point","coordinates":[-86.65549,34.72154]},"properties":{"CERCLIS EPA ID":"ALD009305608","SITE NAME":"MARTIN MARIETTA SERVICES INC","ADDRESS":"110 WYNN DRIVEHUNTSVILLE, AL  35805-1957","COUNTY":"MADISON","SITE SMSA":"2880","FEDERAL FACILITY":"N","NPL STATUS":"Not on the NPL","CORPORATELINK":"No","RECORD OF DECISION (ROD) INFO":"No","EPA REGIONALLINK":"No"}},{"type":"Feature","geometry":{"type":"Point","coordinates":[-86.84012,33.45774]},"properties":{"CERCLIS EPA ID":"ALSFN0407177","SITE NAME":"MAYCO INDUSTRIES INC","ADDRESS":"18 W. OXMOOR RD.BIRMINGHAM, AL  35209","COUNTY":"JEFFERSON","SITE SMSA":"","FEDERAL FACILITY":"N","NPL STATUS":"Not on the NPL","CORPORATELINK":"No","RECORD OF DECISION (ROD) INFO":"No","EPA REGIONALLINK":"No"}},{"type":"Feature","geometry":{"type":"Point","coordinates":[-86.6192,33.56161]},"properties":{"CERCLIS EPA ID":"AL0001923366","SITE NAME":"MCCOMBS DUMP","ADDRESS":"WOMACK ROADBIRMINGHAM, AL  35210","COUNTY":"JEFFERSON","SITE SMSA":"","FEDERAL FACILITY":"N","NPL STATUS":"Not on the NPL","CORPORATELINK":"No","RECORD OF DECISION (ROD) INFO":"No","EPA REGIONALLINK":"No"}},{"type":"Feature","geometry":{"type":"Point","coordinates":[-86.462328,32.781347]},"properties":{"CERCLIS EPA ID":"ALN000409805","SITE NAME":"MCCULLOUGH OIL SITE","ADDRESS":"145 COUNTY ROAD 523VERBENA, AL  36091","COUNTY":"CHILTON","SITE SMSA":"","FEDERAL FACILITY":"N","NPL STATUS":"Not on the NPL","CORPORATELINK":"No","RECORD OF DECISION (ROD) INFO":"No","EPA REGIONALLINK":"No"}},{"type":"Feature","geometry":{"type":"Point","coordinates":[-85.861273,33.655947]},"properties":{"CERCLIS EPA ID":"ALSFN0407159","SITE NAME":"MCT ANNISTON INC.","ADDRESS":"2412 EULATON ROADANNISTON, AL  36201-4265","COUNTY":"CALHOUN","SITE SMSA":"","FEDERAL FACILITY":"N","NPL STATUS":"Not on the NPL","CORPORATELINK":"No","RECORD OF DECISION (ROD) INFO":"No","EPA REGIONALLINK":"No"}},{"type":"Feature","geometry":{"type":"Point","coordinates":[-86.9746,34.60904]},"properties":{"CERCLIS EPA ID":"ALN000407418","SITE NAME":"MED WASTE OF ALABAMA","ADDRESS":"807 MARKET STREET N.E.DECATUR, AL  35601-2445","COUNTY":"MORGAN","SITE SMSA":"","FEDERAL FACILITY":"N","NPL STATUS":"Not on the NPL","CORPORATELINK":"No","RECORD OF DECISION (ROD) INFO":"No","EPA REGIONALLINK":"No"}},{"type":"Feature","geometry":{"type":"Point","coordinates":[-86.78837,33.54943]},"properties":{"CERCLIS EPA ID":"AL0000907360","SITE NAME":"METAL MANAGEMENT ALABAMA INC","ADDRESS":"2020 VANDERBILT ROADBIRMINGHAM, AL  35234-1519","COUNTY":"JEFFERSON","SITE SMSA":"1000","FEDERAL FACILITY":"N","NPL STATUS":"Not on the NPL","CORPORATELINK":"No","RECORD OF DECISION (ROD) INFO":"No","EPA REGIONALLINK":"No"}},{"type":"Feature","geometry":{"type":"Point","coordinates":[-86.78278,33.5375]},"properties":{"CERCLIS EPA ID":"ALD004009825","SITE NAME":"METSO MINERALS INDUSTRIES INC","ADDRESS":"900 38TH STREET NORTHBIRMINGHAM, AL  35222-1048","COUNTY":"JEFFERSON","SITE SMSA":"","FEDERAL FACILITY":"N","NPL STATUS":"Not on the NPL","CORPORATELINK":"No","RECORD OF DECISION (ROD) INFO":"No","EPA REGIONALLINK":"No"}},{"type":"Feature","geometry":{"type":"Point","coordinates":[-85.36718,32.67022]},"properties":{"CERCLIS EPA ID":"ALN000407561","SITE NAME":"MID-STATE ELECTRIC MOTOR SERVICE, INC","ADDRESS":"1801 MARKET STREETOPELIKA, AL  36801-2654","COUNTY":"LEE","SITE SMSA":"","FEDERAL FACILITY":"N","NPL STATUS":"Not on the NPL","CORPORATELINK":"No","RECORD OF DECISION (ROD) INFO":"No","EPA REGIONALLINK":"No"}},{"type":"Feature","geometry":{"type":"Point","coordinates":[-86.62335,33.56972]},"properties":{"CERCLIS EPA ID":"AL0001923358","SITE NAME":"MILLER'S FOUNDRY","ADDRESS":"AMBER HILLS ROADBIRMINGHAM, AL  35210","COUNTY":"JEFFERSON","SITE SMSA":"","FEDERAL FACILITY":"N","NPL STATUS":"Not on the NPL","CORPORATELINK":"No","RECORD OF DECISION (ROD) INFO":"No","EPA REGIONALLINK":"No"}},{"type":"Feature","geometry":{"type":"Point","coordinates":[-88.07277,30.69611]},"properties":{"CERCLIS EPA ID":"ALN000407790","SITE NAME":"MOBILE AREA WATER & SEWER SYSTEM WHSE","ADDRESS":"207 N CATHERINE STMOBILE, AL  36604","COUNTY":"MOBILE","SITE SMSA":"","FEDERAL FACILITY":"N","NPL STATUS":"Not on the NPL","CORPORATELINK":"No","RECORD OF DECISION (ROD) INFO":"No","EPA REGIONALLINK":"No"}},{"type":"Feature","geometry":{"type":"Point","coordinates":[-88.042656,30.669467]},"properties":{"CERCLIS EPA ID":"ALD000772137","SITE NAME":"MOBILE FACILITY","ADDRESS":"1101 EZRA TRICE BLVDMOBILE, AL  36603","COUNTY":"MOBILE","SITE SMSA":"","FEDERAL FACILITY":"N","NPL STATUS":"Not on the NPL","CORPORATELINK":"No","RECORD OF DECISION (ROD) INFO":"No","EPA REGIONALLINK":"No"}},{"type":"Feature","geometry":{"type":"Point","coordinates":[-88.049497,30.666425]},"properties":{"CERCLIS EPA ID":"ALD980708036","SITE NAME":"MOBILE TANK WASH INC","ADDRESS":"1051 LEDYARD STREETMOBILE, AL  36603-1907","COUNTY":"MOBILE","SITE SMSA":"","FEDERAL FACILITY":"N","NPL STATUS":"Not on the NPL","CORPORATELINK":"No","RECORD OF DECISION (ROD) INFO":"No","EPA REGIONALLINK":"No"}},{"type":"Feature","geometry":{"type":"Point","coordinates":[-87.670351,34.826431]},"properties":{"CERCLIS EPA ID":"ALD067102301","SITE NAME":"MONARCH CERAMIC TILE INC","ADDRESS":"834 RICKWOOD ROADFLORENCE, AL  35630-1368","COUNTY":"LAUDERDALE","SITE SMSA":"2650","FEDERAL FACILITY":"N","NPL STATUS":"Removed from Proposed NPL","CORPORATELINK":"No","RECORD OF DECISION (ROD) INFO":"No","EPA REGIONALLINK":"No"}},{"type":"Feature","geometry":{"type":"Point","coordinates":[-86.61305,31.83166]},"properties":{"CERCLIS EPA ID":"ALD031618069","SITE NAME":"MOWBRAY ENGINEERING CO.","ADDRESS":"JCT OF 2ND & BEELAND STSGREENVILLE, AL  36037","COUNTY":"BUTLER","SITE SMSA":"","FEDERAL FACILITY":"N","NPL STATUS":"Deleted from the Final NPL","CORPORATELINK":"No","RECORD OF DECISION (ROD) INFO":"Yes","EPA REGIONALLINK":"No"}},{"type":"Feature","geometry":{"type":"Point","coordinates":[-88.034167,30.718333]},"properties":{"CERCLIS EPA ID":"AL0002368447","SITE NAME":"MUD LAKES","ADDRESS":"HWY 98 BLAKELY ISLANDMOBILE, AL  36633","COUNTY":"MOBILE","SITE SMSA":"","FEDERAL FACILITY":"N","NPL STATUS":"Not on the NPL","CORPORATELINK":"No","RECORD OF DECISION (ROD) INFO":"No","EPA REGIONALLINK":"No"}},{"type":"Feature","geometry":{"type":"Point","coordinates":[-88.150034,33.900107]},"properties":{"CERCLIS EPA ID":"ALD050981687","SITE NAME":"NACCO MATERIALS HANDLING GROUP INC. SULLIGENT FACILITY","ADDRESS":"7711 HIGHWAY 278 EASTSULLIGENT, AL  35586-6151","COUNTY":"LAMAR","SITE SMSA":"","FEDERAL FACILITY":"N","NPL STATUS":"Not on the NPL","CORPORATELINK":"No","RECORD OF DECISION (ROD) INFO":"No","EPA REGIONALLINK":"No"}},{"type":"Feature","geometry":{"type":"Point","coordinates":[-86.669444,34.631111]},"properties":{"CERCLIS EPA ID":"AL1800013863","SITE NAME":"NASA MARSHALL SPACE FLIGHT CENTER","ADDRESS":"MARSHALL SPACE FLIGHT CENTERHUNTSVILLE, AL  35812","COUNTY":"MADISON","SITE SMSA":"3440","FEDERAL FACILITY":"Y","NPL STATUS":"Site is Part of NPL Site","CORPORATELINK":"No","RECORD OF DECISION (ROD) INFO":"Yes","EPA REGIONALLINK":"No"}},{"type":"Feature","geometry":{"type":"Point","coordinates":[-86.80797,33.5434]},"properties":{"CERCLIS EPA ID":"ALD931524044","SITE NAME":"NATIONAL TIRE & SLVG","ADDRESS":"2900 21ST AVE NOBIRMINGHAM, AL  35234-1334","COUNTY":"JEFFERSON","SITE SMSA":"","FEDERAL FACILITY":"N","NPL STATUS":"Not on the NPL","CORPORATELINK":"No","RECORD OF DECISION (ROD) INFO":"No","EPA REGIONALLINK":"No"}},{"type":"Feature","geometry":{"type":"Point","coordinates":[-88.092668,30.535913]},"properties":{"CERCLIS EPA ID":"AL3170024639","SITE NAME":"NAVAL STATION MOBILE","ADDRESS":"7411 LAKE ROADMOBILE, AL  36605","COUNTY":"MOBILE","SITE SMSA":"5160","FEDERAL FACILITY":"Y","NPL STATUS":"Not on the NPL","CORPORATELINK":"No","RECORD OF DECISION (ROD) INFO":"No","EPA REGIONALLINK":"No"}},{"type":"Feature","geometry":{"type":"Point","coordinates":[-85.58641,31.31199]},"properties":{"CERCLIS EPA ID":"ALSFN0407176","SITE NAME":"NEWTON DOSTER DUMPSITE-KING CHURCH FURN","ADDRESS":"DALE COUNTY ROAD 9NEWTON, AL  36352","COUNTY":"DALE","SITE SMSA":"","FEDERAL FACILITY":"N","NPL STATUS":"Not on the NPL","CORPORATELINK":"No","RECORD OF DECISION (ROD) INFO":"No","EPA REGIONALLINK":"No"}},{"type":"Feature","geometry":{"type":"Point","coordinates":[-87.010422,34.61303]},"properties":{"CERCLIS EPA ID":"ALN000410920","SITE NAME":"NORFOLK SOUTHERN DECATUR ALABAMA HF RELEASE","ADDRESS":"1650 FIFTH STREET NWDECATUR, AL  35603","COUNTY":"MORGAN","SITE SMSA":"","FEDERAL FACILITY":"N","NPL STATUS":"Not on the NPL","CORPORATELINK":"No","RECORD OF DECISION (ROD) INFO":"No","EPA REGIONALLINK":"No"}},{"type":"Feature","geometry":{"type":"Point","coordinates":[-88.021111,30.958889]},"properties":{"CERCLIS EPA ID":"ALD008150617","SITE NAME":"NORTH MOBILE CO INDUSTRIAL PARK","ADDRESS":"12740 US HIGHWAY 43 NORTHAXIS, AL  36505","COUNTY":"MOBILE","SITE SMSA":"5160","FEDERAL FACILITY":"N","NPL STATUS":"Not on the NPL","CORPORATELINK":"No","RECORD OF DECISION (ROD) INFO":"No","EPA REGIONALLINK":"No"}},{"type":"Feature","geometry":{"type":"Point","coordinates":[-85.96229,33.99565]},"properties":{"CERCLIS EPA ID":"ALN000410199","SITE NAME":"ODESSA STREET DRUM SITE","ADDRESS":"1401 ODESSA DRIVEGADSDEN, AL  35903","COUNTY":"ETOWAH","SITE SMSA":"","FEDERAL FACILITY":"N","NPL STATUS":"Not on the NPL","CORPORATELINK":"No","RECORD OF DECISION (ROD) INFO":"No","EPA REGIONALLINK":"No"}},{"type":"Feature","geometry":{"type":"Point","coordinates":[-86.253849,33.167403]},"properties":{"CERCLIS EPA ID":"ALSFN0406861","SITE NAME":"OGLETREE PLAZA DRY CLEANERS","ADDRESS":"6 NORTH INDUSTRY AVE.SYLACAUGA, AL  35150-2446","COUNTY":"TALLADEGA","SITE SMSA":"","FEDERAL FACILITY":"N","NPL STATUS":"Not on the NPL","CORPORATELINK":"No","RECORD OF DECISION (ROD) INFO":"No","EPA REGIONALLINK":"No"}},{"type":"Feature","geometry":{"type":"Point","coordinates":[-86.28988,32.37211]},"properties":{"CERCLIS EPA ID":"AL0001105477","SITE NAME":"OLD MONTGOMERY PLATING WORKS SITE","ADDRESS":"1419 HIGHLAND AVE.MONTGOMERY, AL  36104-4721","COUNTY":"MONTGOMERY","SITE SMSA":"5240","FEDERAL FACILITY":"N","NPL STATUS":"Not on the NPL","CORPORATELINK":"No","RECORD OF DECISION (ROD) INFO":"No","EPA REGIONALLINK":"No"}},{"type":"Feature","geometry":{"type":"Point","coordinates":[-86.41318,32.72508]},"properties":{"CERCLIS EPA ID":"AL0001920578","SITE NAME":"OLD SPEIGNER LANDFILL","ADDRESS":"COUNTY ROAD 23ELMORE, AL  36025","COUNTY":"ELMORE","SITE SMSA":"","FEDERAL FACILITY":"N","NPL STATUS":"Not on the NPL","CORPORATELINK":"No","RECORD OF DECISION (ROD) INFO":"No","EPA REGIONALLINK":"No"}},{"type":"Feature","geometry":{"type":"Point","coordinates":[-87.99445,31.26388]},"properties":{"CERCLIS EPA ID":"ALD008188708","SITE NAME":"OLIN CORP","ADDRESS":"1638 INDUSTRIAL ROADMCINTOSH, AL  36553-6609","COUNTY":"WASHINGTON","SITE SMSA":"","FEDERAL FACILITY":"N","NPL STATUS":"Currently on the Final NPL","CORPORATELINK":"No","RECORD OF DECISION (ROD) INFO":"Yes","EPA REGIONALLINK":"No"}},{"type":"Feature","geometry":{"type":"Point","coordinates":[-86.62991,34.73935]},"properties":{"CERCLIS EPA ID":"ALN000407753","SITE NAME":"ORPHANED LITHIUM","ADDRESS":"1318 PUTNAM LANEHUNTSVILLE, AL  35816-2220","COUNTY":"MADISON","SITE SMSA":"","FEDERAL FACILITY":"N","NPL STATUS":"Not on the NPL","CORPORATELINK":"No","RECORD OF DECISION (ROD) INFO":"No","EPA REGIONALLINK":"No"}},{"type":"Feature","geometry":{"type":"Point","coordinates":[-86.970766,34.760597]},"properties":{"CERCLIS EPA ID":"ALD981469992","SITE NAME":"OWENS PLATING","ADDRESS":"133 ROY LONG ROADATHENS, AL  35611","COUNTY":"LIMESTONE","SITE SMSA":"","FEDERAL FACILITY":"N","NPL STATUS":"Not on the NPL","CORPORATELINK":"No","RECORD OF DECISION (ROD) INFO":"No","EPA REGIONALLINK":"No"}},{"type":"Feature","geometry":{"type":"Point","coordinates":[-86.045573,33.987698]},"properties":{"CERCLIS EPA ID":"ALN000409999","SITE NAME":"OWENS PLATING CO","ADDRESS":"1440 SUTTON BRIDGE RD.RAINBOW CITY, AL  359068701","COUNTY":"ETOWAH","SITE SMSA":"","FEDERAL FACILITY":"N","NPL STATUS":"Not on the NPL","CORPORATELINK":"No","RECORD OF DECISION (ROD) INFO":"No","EPA REGIONALLINK":"No"}},{"type":"Feature","geometry":{"type":"Point","coordinates":[-86.269408,33.602887]},"properties":{"CERCLIS EPA ID":"ALN000410982","SITE NAME":"PELL CITY HG SPILL","ADDRESS":"2413 COMER AVENUEPELL CITY, AL  35125","COUNTY":"ST. CLAIR","SITE SMSA":"","FEDERAL FACILITY":"N","NPL STATUS":"Not on the NPL","CORPORATELINK":"No","RECORD OF DECISION (ROD) INFO":"No","EPA REGIONALLINK":"No"}},{"type":"Feature","geometry":{"type":"Point","coordinates":[-87.625,31.0125]},"properties":{"CERCLIS EPA ID":"ALD980728703","SITE NAME":"PERDIDO GROUND WATER CONTAMINATION","ADDRESS":"COUNTY RD 47 SPERDIDO, AL  36562","COUNTY":"BALDWIN","SITE SMSA":"5160","FEDERAL FACILITY":"N","NPL STATUS":"Currently on the Final NPL","CORPORATELINK":"No","RECORD OF DECISION (ROD) INFO":"Yes","EPA REGIONALLINK":"No"}},{"type":"Feature","geometry":{"type":"Point","coordinates":[-86.313333,33.018333]},"properties":{"CERCLIS EPA ID":"ALD097745756","SITE NAME":"PERFORMANCE ADVANTAGE INC","ADDRESS":"PO BOX 157, ROUTE 1 HIGHWAY 29WEOGUFKA, AL  35183-0157","COUNTY":"COOSA","SITE SMSA":"","FEDERAL FACILITY":"N","NPL STATUS":"Not on the NPL","CORPORATELINK":"No","RECORD OF DECISION (ROD) INFO":"No","EPA REGIONALLINK":"No"}},{"type":"Feature","geometry":{"type":"Point","coordinates":[-86.34835,32.36322]},"properties":{"CERCLIS EPA ID":"ALN000410350","SITE NAME":"PETERBILT OF MONTGOMERY","ADDRESS":"531 AIRBASE BOULEVARDMONTGOMERY, AL  36108-2401","COUNTY":"MONTGOMERY","SITE SMSA":"","FEDERAL FACILITY":"N","NPL STATUS":"Not on the NPL","CORPORATELINK":"No","RECORD OF DECISION (ROD) INFO":"No","EPA REGIONALLINK":"No"}},{"type":"Feature","geometry":{"type":"Point","coordinates":[-87.04144,32.41799]},"properties":{"CERCLIS EPA ID":"ALSFN0406974","SITE NAME":"PHILLIES CIGAR CO.","ADDRESS":"309 MORGAN ST.SELMA, AL  36702","COUNTY":"DALLAS","SITE SMSA":"","FEDERAL FACILITY":"N","NPL STATUS":"Not on the NPL","CORPORATELINK":"No","RECORD OF DECISION (ROD) INFO":"No","EPA REGIONALLINK":"No"}},{"type":"Feature","geometry":{"type":"Point","coordinates":[-86.69062,33.71832]},"properties":{"CERCLIS EPA ID":"ALN000410959","SITE NAME":"PINSON MERCURY RELEASE","ADDRESS":"7350 OLD DIXIANA ROADPINSON, AL  35126","COUNTY":"JEFFERSON","SITE SMSA":"","FEDERAL FACILITY":"N","NPL STATUS":"Not on the NPL","CORPORATELINK":"No","RECORD OF DECISION (ROD) INFO":"No","EPA REGIONALLINK":"No"}},{"type":"Feature","geometry":{"type":"Point","coordinates":[-85.8361,33.651985]},"properties":{"CERCLIS EPA ID":"ALSFN0407161","SITE NAME":"POLLOCK COLLINS OIL","ADDRESS":"605 GLENN ADDIEANNISTON, AL  36201-5582","COUNTY":"CALHOUN","SITE SMSA":"","FEDERAL FACILITY":"N","NPL STATUS":"Not on the NPL","CORPORATELINK":"No","RECORD OF DECISION (ROD) INFO":"No","EPA REGIONALLINK":"No"}},{"type":"Feature","geometry":{"type":"Point","coordinates":[-86.79919,33.54954]},"properties":{"CERCLIS EPA ID":"ALD067140061","SITE NAME":"PSC METALS,INC.(SHUT DN)","ADDRESS":"3353 27TH AVENUE NORTHBIRMINGHAM, AL  35207-5105","COUNTY":"JEFFERSON","SITE SMSA":"","FEDERAL FACILITY":"N","NPL STATUS":"Not on the NPL","CORPORATELINK":"No","RECORD OF DECISION (ROD) INFO":"No","EPA REGIONALLINK":"No"}},{"type":"Feature","geometry":{"type":"Point","coordinates":[-86.125201,34.151795]},"properties":{"CERCLIS EPA ID":"ALN980824000","SITE NAME":"PUCKETT SMELTER","ADDRESS":"3329 MOUNTAINBORO ROADMOUNTAINBORO, AL  35956-3107","COUNTY":"ETOWAH","SITE SMSA":"","FEDERAL FACILITY":"N","NPL STATUS":"Not on the NPL","CORPORATELINK":"No","RECORD OF DECISION (ROD) INFO":"No","EPA REGIONALLINK":"No"}},{"type":"Feature","geometry":{"type":"Point","coordinates":[-86.714923,33.528459]},"properties":{"CERCLIS EPA ID":"ALN000410828","SITE NAME":"PUTNAM MIDDLE SCHOOL","ADDRESS":"1757 MONTCLAIR RDBIRMINGHAM, AL  35210-2617","COUNTY":"JEFFERSON COUNTY","SITE SMSA":"","FEDERAL FACILITY":"N","NPL STATUS":"Not on the NPL","CORPORATELINK":"No","RECORD OF DECISION (ROD) INFO":"No","EPA REGIONALLINK":"No"}},{"type":"Feature","geometry":{"type":"Point","coordinates":[-86.34791,32.36143]},"properties":{"CERCLIS EPA ID":"ALN000410487","SITE NAME":"RAWHIDE MOBILE HOMES SITE","ADDRESS":"663 AIRBASE BOULEVARDMONTGOMERY, AL  36108","COUNTY":"MONTGOMERY","SITE SMSA":"","FEDERAL FACILITY":"N","NPL STATUS":"Not on the NPL","CORPORATELINK":"No","RECORD OF DECISION (ROD) INFO":"No","EPA REGIONALLINK":"No"}},{"type":"Feature","geometry":{"type":"Point","coordinates":[-86.9064,33.52434]},"properties":{"CERCLIS EPA ID":"AL0002381747","SITE NAME":"READING AVE. DISPOSAL - USX ENSLEY","ADDRESS":"610 READING AVENUE DBIRMINGHAM, AL  35214","COUNTY":"JEFFERSON","SITE SMSA":"","FEDERAL FACILITY":"N","NPL STATUS":"Not on the NPL","CORPORATELINK":"No","RECORD OF DECISION (ROD) INFO":"No","EPA REGIONALLINK":"No"}},{"type":"Feature","geometry":{"type":"Point","coordinates":[-86.34797,32.36169]},"properties":{"CERCLIS EPA ID":"ALN000410349","SITE NAME":"REBUILT AUTO PAINT & BODY","ADDRESS":"621-B AIR BASE BOULEVARDMONTGOMERY, AL  36108-2403","COUNTY":"MONTGOMERY","SITE SMSA":"","FEDERAL FACILITY":"N","NPL STATUS":"Not on the NPL","CORPORATELINK":"No","RECORD OF DECISION (ROD) INFO":"No","EPA REGIONALLINK":"No"}},{"type":"Feature","geometry":{"type":"Point","coordinates":[-85.398533,31.177247]},"properties":{"CERCLIS EPA ID":"AL0001909845","SITE NAME":"RED FOX FERTILIZER CO.","ADDRESS":"232 E. INEZ ROADDOTHAN, AL  36301-5762","COUNTY":"HOUSTON","SITE SMSA":"","FEDERAL FACILITY":"N","NPL STATUS":"Not on the NPL","CORPORATELINK":"No","RECORD OF DECISION (ROD) INFO":"No","EPA REGIONALLINK":"No"}},{"type":"Feature","geometry":{"type":"Point","coordinates":[-86.78006,33.49468]},"properties":{"CERCLIS EPA ID":"AL0001120039","SITE NAME":"REDMONT GARDENS","ADDRESS":"3829 THORNHILL RD.MOUNTAIN BROOK, AL  35213","COUNTY":"JEFFERSON","SITE SMSA":"1000","FEDERAL FACILITY":"N","NPL STATUS":"Not on the NPL","CORPORATELINK":"No","RECORD OF DECISION (ROD) INFO":"No","EPA REGIONALLINK":"No"}},{"type":"Feature","geometry":{"type":"Point","coordinates":[-88.07306,30.80833]},"properties":{"CERCLIS EPA ID":"ALD980844385","SITE NAME":"REDWING CARRIERS INC SARALAND","ADDRESS":"527 US HWY 43SARALAND, AL  36571","COUNTY":"MOBILE","SITE SMSA":"5160","FEDERAL FACILITY":"N","NPL STATUS":"Currently on the Final NPL","CORPORATELINK":"No","RECORD OF DECISION (ROD) INFO":"Yes","EPA REGIONALLINK":"No"}},{"type":"Feature","geometry":{"type":"Point","coordinates":[-86.259312,33.191442]},"properties":{"CERCLIS EPA ID":"ALR000044487","SITE NAME":"REEF ENVIRONMENTAL SERVICES, LLC","ADDRESS":"71 TWIN STREETSYLACAUGA, AL  35150-1561","COUNTY":"TALLADEGA","SITE SMSA":"","FEDERAL FACILITY":"N","NPL STATUS":"Not on the NPL","CORPORATELINK":"No","RECORD OF DECISION (ROD) INFO":"No","EPA REGIONALLINK":"No"}},{"type":"Feature","geometry":{"type":"Point","coordinates":[-87.4777,33.23665]},"properties":{"CERCLIS EPA ID":"ALD004002838","SITE NAME":"REICHHOLD CHEMICALS INC","ADDRESS":"REICHHOLD RDHOLT, AL  35404","COUNTY":"TUSCALOOSA","SITE SMSA":"8600","FEDERAL FACILITY":"N","NPL STATUS":"Not on the NPL","CORPORATELINK":"No","RECORD OF DECISION (ROD) INFO":"No","EPA REGIONALLINK":"No"}},{"type":"Feature","geometry":{"type":"Point","coordinates":[-88.038055,30.911295]},"properties":{"CERCLIS EPA ID":"ALD021257951","SITE NAME":"RENTOKIL INITIAL ENVIRONMENTAL SERVICES, LLC","ADDRESS":"10565 HIGHWAY 43CREOLA, AL  36525","COUNTY":"MOBILE","SITE SMSA":"5160","FEDERAL FACILITY":"N","NPL STATUS":"Not on the NPL","CORPORATELINK":"No","RECORD OF DECISION (ROD) INFO":"No","EPA REGIONALLINK":"No"}},{"type":"Feature","geometry":{"type":"Point","coordinates":[-86.31951,32.36899]},"properties":{"CERCLIS EPA ID":"AL0000301747","SITE NAME":"REV. DAVID JONES PROPERTY","ADDRESS":"595 GRADY STREETMONTGOMERY, AL  36108","COUNTY":"MONTGOMERY","SITE SMSA":"","FEDERAL FACILITY":"N","NPL STATUS":"Not on the NPL","CORPORATELINK":"No","RECORD OF DECISION (ROD) INFO":"No","EPA REGIONALLINK":"No"}},{"type":"Feature","geometry":{"type":"Point","coordinates":[-87.657431,34.802986]},"properties":{"CERCLIS EPA ID":"ALD049984842","SITE NAME":"RICHARDS METAL PLATING INC","ADDRESS":"529 SOUTH ROYAL AVENUEFLORENCE, AL  35630-4967","COUNTY":"LAUDERDALE","SITE SMSA":"","FEDERAL FACILITY":"N","NPL STATUS":"Not on the NPL","CORPORATELINK":"No","RECORD OF DECISION (ROD) INFO":"No","EPA REGIONALLINK":"No"}},{"type":"Feature","geometry":{"type":"Point","coordinates":[-85.978267,32.949668]},"properties":{"CERCLIS EPA ID":"ALD983169947","SITE NAME":"ROBINSON FOUNDRY INC.","ADDRESS":"505 ROBINSON COURTALEXANDER CITY, AL  35010-3523","COUNTY":"TALLAPOOSA","SITE SMSA":"","FEDERAL FACILITY":"N","NPL STATUS":"Not on the NPL","CORPORATELINK":"No","RECORD OF DECISION (ROD) INFO":"No","EPA REGIONALLINK":"No"}},{"type":"Feature","geometry":{"type":"Point","coordinates":[-85.83148,33.62973]},"properties":{"CERCLIS EPA ID":"ALSFN0407162","SITE NAME":"RUDISILL FOUNDRY","ADDRESS":"1500 FRONT STREETANNISTON, AL  36201-8273","COUNTY":"CALHOUN","SITE SMSA":"","FEDERAL FACILITY":"N","NPL STATUS":"Not on the NPL","CORPORATELINK":"No","RECORD OF DECISION (ROD) INFO":"No","EPA REGIONALLINK":"No"}},{"type":"Feature","geometry":{"type":"Point","coordinates":[-88.193641,30.810562]},"properties":{"CERCLIS EPA ID":"AL0002368827","SITE NAME":"SEABURY STATION","ADDRESS":"5760 MARSHALL ROADEIGHT MILE, AL  36613","COUNTY":"MOBILE","SITE SMSA":"","FEDERAL FACILITY":"N","NPL STATUS":"Not on the NPL","CORPORATELINK":"No","RECORD OF DECISION (ROD) INFO":"No","EPA REGIONALLINK":"No"}},{"type":"Feature","geometry":{"type":"Point","coordinates":[-86.594028,33.954869]},"properties":{"CERCLIS EPA ID":"ALN000407362","SITE NAME":"SHIRLEY RESIDENTIAL INCIDENT","ADDRESS":"3960 COVERED BRIDGE ROADCLEVELAND, AL  35049-5713","COUNTY":"BLOUNT","SITE SMSA":"","FEDERAL FACILITY":"N","NPL STATUS":"Not on the NPL","CORPORATELINK":"No","RECORD OF DECISION (ROD) INFO":"No","EPA REGIONALLINK":"No"}},{"type":"Feature","geometry":{"type":"Point","coordinates":[-87.69569,34.84714]},"properties":{"CERCLIS EPA ID":"ALN000407757","SITE NAME":"SHOALS CHRISTIAN SCHOOL MERCURY","ADDRESS":"301 HEATHROW DRIVEFLORENCE, AL  35633-1559","COUNTY":"LAUDERDALE","SITE SMSA":"","FEDERAL FACILITY":"N","NPL STATUS":"Not on the NPL","CORPORATELINK":"No","RECORD OF DECISION (ROD) INFO":"No","EPA REGIONALLINK":"No"}},{"type":"Feature","geometry":{"type":"Point","coordinates":[-86.65307,34.71693]},"properties":{"CERCLIS EPA ID":"ALD001817295","SITE NAME":"SIEMENS VDO  PLANT 2","ADDRESS":"103 WYNN DRIVEHUNTSVILLE, AL  35805-1956","COUNTY":"MADISON","SITE SMSA":"3440","FEDERAL FACILITY":"N","NPL STATUS":"Not on the NPL","CORPORATELINK":"No","RECORD OF DECISION (ROD) INFO":"No","EPA REGIONALLINK":"No"}},{"type":"Feature","geometry":{"type":"Point","coordinates":[-85.82987,33.6808]},"properties":{"CERCLIS EPA ID":"ALN010724001","SITE NAME":"SIERRA CHEMICAL SUPPLY","ADDRESS":"2716 NOBLE STREETANNISTON, AL  36201-2944","COUNTY":"CALHOUN","SITE SMSA":"","FEDERAL FACILITY":"N","NPL STATUS":"Not on the NPL","CORPORATELINK":"No","RECORD OF DECISION (ROD) INFO":"No","EPA REGIONALLINK":"No"}},{"type":"Feature","geometry":{"type":"Point","coordinates":[-88.03139,31.26454]},"properties":{"CERCLIS EPA ID":"AL0001401843","SITE NAME":"SIMS CHAPEL WOOD TREATER","ADDRESS":"COUNTY RD 35MC INTOSH, AL  36553","COUNTY":"WASHINGTON","SITE SMSA":"","FEDERAL FACILITY":"N","NPL STATUS":"Not on the NPL","CORPORATELINK":"No","RECORD OF DECISION (ROD) INFO":"No","EPA REGIONALLINK":"No"}},{"type":"Feature","geometry":{"type":"Point","coordinates":[-85.67494,31.099075]},"properties":{"CERCLIS EPA ID":"AL0000107797","SITE NAME":"SKINNER GRAIN AND FERTILIZER","ADDRESS":"456 TORO ROADHARTFORD, AL  36344-1401","COUNTY":"GENEVA","SITE SMSA":"","FEDERAL FACILITY":"N","NPL STATUS":"Not on the NPL","CORPORATELINK":"No","RECORD OF DECISION (ROD) INFO":"No","EPA REGIONALLINK":"No"}},{"type":"Feature","geometry":{"type":"Point","coordinates":[-86.58686,34.72775]},"properties":{"CERCLIS EPA ID":"ALD983167487","SITE NAME":"SOUTHERN COTTON OIL","ADDRESS":"CHURCH STREETHUNTSVILLE, AL  35801","COUNTY":"MADISON","SITE SMSA":"1000","FEDERAL FACILITY":"N","NPL STATUS":"Not on the NPL","CORPORATELINK":"No","RECORD OF DECISION (ROD) INFO":"No","EPA REGIONALLINK":"No"}},{"type":"Feature","geometry":{"type":"Point","coordinates":[-88.0748,30.66177]},"properties":{"CERCLIS EPA ID":"ALD983166034","SITE NAME":"SOUTHERN PLATING","ADDRESS":"1554 DUVAL STMOBILE, AL  36605","COUNTY":"MOBILE","SITE SMSA":"5160","FEDERAL FACILITY":"N","NPL STATUS":"Not on the NPL","CORPORATELINK":"No","RECORD OF DECISION (ROD) INFO":"No","EPA REGIONALLINK":"No"}},{"type":"Feature","geometry":{"type":"Point","coordinates":[-85.84889,33.60333]},"properties":{"CERCLIS EPA ID":"ALN000407388","SITE NAME":"SOUTHERN TOOL INC","ADDRESS":"112 HIGHWAY 78 WESTOXFORD, AL  36203","COUNTY":"CALHOUN","SITE SMSA":"","FEDERAL FACILITY":"N","NPL STATUS":"Not on the NPL","CORPORATELINK":"No","RECORD OF DECISION (ROD) INFO":"No","EPA REGIONALLINK":"No"}},{"type":"Feature","geometry":{"type":"Point","coordinates":[-86.31098,32.39376]},"properties":{"CERCLIS EPA ID":"ALD980446025","SITE NAME":"SOUTHLAND AGRICULTURAL CHEMICALS","ADDRESS":"1075 CHANDLER ST.MONTGOMERY, AL  36104-2001","COUNTY":"MONTGOMERY","SITE SMSA":"5240","FEDERAL FACILITY":"N","NPL STATUS":"Not on the NPL","CORPORATELINK":"No","RECORD OF DECISION (ROD) INFO":"No","EPA REGIONALLINK":"No"}},{"type":"Feature","geometry":{"type":"Point","coordinates":[-86.33773,32.37613]},"properties":{"CERCLIS EPA ID":"ALD982087017","SITE NAME":"SOUTHLAND INTERNATIONAL TRUCKS","ADDRESS":"1563 BELL STREETMONTGOMERY, AL  36104-2931","COUNTY":"MONTGOMERY","SITE SMSA":"5240","FEDERAL FACILITY":"N","NPL STATUS":"Not on the NPL","CORPORATELINK":"No","RECORD OF DECISION (ROD) INFO":"No","EPA REGIONALLINK":"No"}},{"type":"Feature","geometry":{"type":"Point","coordinates":[-87.171708,31.739855]},"properties":{"CERCLIS EPA ID":"ALD058223371","SITE NAME":"STALLWORTH TIMBER COMPANY INCORPORATED","ADDRESS":"27 BRYAN STREETBEATRICE, AL  36425","COUNTY":"MONROE","SITE SMSA":"","FEDERAL FACILITY":"N","NPL STATUS":"Not on the NPL","CORPORATELINK":"No","RECORD OF DECISION (ROD) INFO":"No","EPA REGIONALLINK":"No"}},{"type":"Feature","geometry":{"type":"Point","coordinates":[-87.662802,34.701035]},"properties":{"CERCLIS EPA ID":"ALD981475601","SITE NAME":"STAR PLATING","ADDRESS":"2103 MARYLAND STREETMUSCLE SHOALS, AL  35661","COUNTY":"COLBERT","SITE SMSA":"2650","FEDERAL FACILITY":"N","NPL STATUS":"Not on the NPL","CORPORATELINK":"No","RECORD OF DECISION (ROD) INFO":"No","EPA REGIONALLINK":"No"}},{"type":"Feature","geometry":{"type":"Point","coordinates":[-87.60365,34.84294]},"properties":{"CERCLIS EPA ID":"AL0001923333","SITE NAME":"STEVENSON STREET FOUNDRY","ADDRESS":"STEVENSONFLORENCE, AL  35630","COUNTY":"LAUDERDALE","SITE SMSA":"","FEDERAL FACILITY":"N","NPL STATUS":"Not on the NPL","CORPORATELINK":"No","RECORD OF DECISION (ROD) INFO":"No","EPA REGIONALLINK":"No"}},{"type":"Feature","geometry":{"type":"Point","coordinates":[-86.889701,34.521334]},"properties":{"CERCLIS EPA ID":"AL0002368819","SITE NAME":"SUMMERVILLE ENTERPRISES","ADDRESS":"620 HIGHWAY 67DECATUR, AL  35603-6304","COUNTY":"MORGAN","SITE SMSA":"","FEDERAL FACILITY":"N","NPL STATUS":"Not on the NPL","CORPORATELINK":"No","RECORD OF DECISION (ROD) INFO":"No","EPA REGIONALLINK":"No"}},{"type":"Feature","geometry":{"type":"Point","coordinates":[-88.02138,30.975]},"properties":{"CERCLIS EPA ID":"ALD095688875","SITE NAME":"SYNGENTA CROP PROTECTION INC","ADDRESS":"13500 US HWY 43 NBUCKS, AL  36512","COUNTY":"MOBILE","SITE SMSA":"5160","FEDERAL FACILITY":"N","NPL STATUS":"Currently on the Final NPL","CORPORATELINK":"No","RECORD OF DECISION (ROD) INFO":"Yes","EPA REGIONALLINK":"No"}},{"type":"Feature","geometry":{"type":"Point","coordinates":[-86.3791,32.3761]},"properties":{"CERCLIS EPA ID":"ALD007454085","SITE NAME":"T.H. AGRICULTURE & NUTRITION CO. (MONTGOMERY PLANT)","ADDRESS":"3017 BIRMINGHAM HIGHWAYMONTGOMERY, AL  36108","COUNTY":"MONTGOMERY","SITE SMSA":"5240","FEDERAL FACILITY":"N","NPL STATUS":"Currently on the Final NPL","CORPORATELINK":"No","RECORD OF DECISION (ROD) INFO":"Yes","EPA REGIONALLINK":"No"}},{"type":"Feature","geometry":{"type":"Point","coordinates":[-86.088606,33.440012]},"properties":{"CERCLIS EPA ID":"ALN000407342","SITE NAME":"TALLADEGA FOUNDRY AND MACHINE COMPANY, INCORPORATED","ADDRESS":"726 STONE AVE.TALLADEGA, AL  35160","COUNTY":"TALLADEGA","SITE SMSA":"","FEDERAL FACILITY":"N","NPL STATUS":"Not on the NPL","CORPORATELINK":"No","RECORD OF DECISION (ROD) INFO":"No","EPA REGIONALLINK":"No"}},{"type":"Feature","geometry":{"type":"Point","coordinates":[-86.102803,33.432585]},"properties":{"CERCLIS EPA ID":"ALSFN0407069","SITE NAME":"TALLADEGA GAS PLANT","ADDRESS":"203 SOUTH STREET W.TALLADEGA, AL  35160","COUNTY":"TALLADEGA","SITE SMSA":"","FEDERAL FACILITY":"N","NPL STATUS":"Not on the NPL","CORPORATELINK":"No","RECORD OF DECISION (ROD) INFO":"No","EPA REGIONALLINK":"No"}},{"type":"Feature","geometry":{"type":"Point","coordinates":[-86.103763,33.434341]},"properties":{"CERCLIS EPA ID":"ALN000407529","SITE NAME":"TALLADEGA GAS WORKS","ADDRESS":"237 BATTLE STREET WESTTALLADEGA, AL  35160-2428","COUNTY":"TALLADEGA","SITE SMSA":"","FEDERAL FACILITY":"N","NPL STATUS":"Not on the NPL","CORPORATELINK":"No","RECORD OF DECISION (ROD) INFO":"No","EPA REGIONALLINK":"No"}},{"type":"Feature","geometry":{"type":"Point","coordinates":[-86.653556,34.719397]},"properties":{"CERCLIS EPA ID":"ALD031639743","SITE NAME":"TECHNICAL MICRONICS","ADDRESS":"210 WYNN DRIVEHUNTSVILLE, AL  35805-1959","COUNTY":"MADISON","SITE SMSA":"3440","FEDERAL FACILITY":"N","NPL STATUS":"Not on the NPL","CORPORATELINK":"No","RECORD OF DECISION (ROD) INFO":"No","EPA REGIONALLINK":"No"}},{"type":"Feature","geometry":{"type":"Point","coordinates":[-88.073756,30.760953]},"properties":{"CERCLIS EPA ID":"ALN000407813","SITE NAME":"TELEGRAPH ROAD SITE","ADDRESS":"127 TELEGRAPH ROADCHICKASAW, AL  36611-1344","COUNTY":"MOBILE","SITE SMSA":"","FEDERAL FACILITY":"N","NPL STATUS":"Not on the NPL","CORPORATELINK":"No","RECORD OF DECISION (ROD) INFO":"No","EPA REGIONALLINK":"No"}},{"type":"Feature","geometry":{"type":"Point","coordinates":[-87.6561,34.80516]},"properties":{"CERCLIS EPA ID":"AL0001923325","SITE NAME":"TENNESSEE VALLEY FERTILIZER CO.","ADDRESS":"COMMERCE STREETFLORENCE, AL  35630","COUNTY":"LAUDERDALE","SITE SMSA":"","FEDERAL FACILITY":"N","NPL STATUS":"Not on the NPL","CORPORATELINK":"No","RECORD OF DECISION (ROD) INFO":"No","EPA REGIONALLINK":"No"}},{"type":"Feature","geometry":{"type":"Point","coordinates":[-85.35834,31.21887]},"properties":{"CERCLIS EPA ID":"AL0001876903","SITE NAME":"TERRA INTERNATIONAL","ADDRESS":"251 KELLY DRDOTHAN, AL  36303-5401","COUNTY":"HOUSTON","SITE SMSA":"","FEDERAL FACILITY":"N","NPL STATUS":"Not on the NPL","CORPORATELINK":"No","RECORD OF DECISION (ROD) INFO":"No","EPA REGIONALLINK":"No"}},{"type":"Feature","geometry":{"type":"Point","coordinates":[-86.34864,32.36448]},"properties":{"CERCLIS EPA ID":"ALD072086275","SITE NAME":"TERRA INTERNATIONAL INC","ADDRESS":"500 AIR BASE BLVDMONTGOMERY, AL  361080000","COUNTY":"MONTGOMERY","SITE SMSA":"5240","FEDERAL FACILITY":"N","NPL STATUS":"Not on the NPL","CORPORATELINK":"No","RECORD OF DECISION (ROD) INFO":"No","EPA REGIONALLINK":"No"}},{"type":"Feature","geometry":{"type":"Point","coordinates":[-88.10121,30.53137]},"properties":{"CERCLIS EPA ID":"ALN000410586","SITE NAME":"THEODORE","ADDRESS":"7730 DEER RIVER ROADTHEODORE, AL  36582-9360","COUNTY":"MOBILE","SITE SMSA":"","FEDERAL FACILITY":"N","NPL STATUS":"Not on the NPL","CORPORATELINK":"No","RECORD OF DECISION (ROD) INFO":"No","EPA REGIONALLINK":"No"}},{"type":"Feature","geometry":{"type":"Point","coordinates":[-87.28169,34.76309]},"properties":{"CERCLIS EPA ID":"ALN000409740","SITE NAME":"TRAVEL PATH ROAD DRUM","ADDRESS":"214 TRAVEL PATH ROADROGERSVILLE, AL  35652-6846","COUNTY":"LAUDERDALE","SITE SMSA":"","FEDERAL FACILITY":"N","NPL STATUS":"Not on the NPL","CORPORATELINK":"No","RECORD OF DECISION (ROD) INFO":"No","EPA REGIONALLINK":"No"}},{"type":"Feature","geometry":{"type":"Point","coordinates":[-85.37269,31.22707]},"properties":{"CERCLIS EPA ID":"ALN000407212","SITE NAME":"TRI-STATE PLANT FOOD","ADDRESS":"1615 E BURDESHAW STDOTHAN, AL  36303","COUNTY":"HOUSTON","SITE SMSA":"","FEDERAL FACILITY":"N","NPL STATUS":"Not on the NPL","CORPORATELINK":"No","RECORD OF DECISION (ROD) INFO":"No","EPA REGIONALLINK":"No"}},{"type":"Feature","geometry":{"type":"Point","coordinates":[-87.562532,33.175721]},"properties":{"CERCLIS EPA ID":"ALN000410687","SITE NAME":"TUSCALOOSA TORNADO RESPONSE","ADDRESS":"3700 KAULOOSA AVENUETUSCALOOSA, AL  35401","COUNTY":"TUSCALOOSA","SITE SMSA":"","FEDERAL FACILITY":"N","NPL STATUS":"Not on the NPL","CORPORATELINK":"No","RECORD OF DECISION (ROD) INFO":"No","EPA REGIONALLINK":"No"}},{"type":"Feature","geometry":{"type":"Point","coordinates":[-87.52726,33.17807]},"properties":{"CERCLIS EPA ID":"ALN000410258","SITE NAME":"TUSCALOOSA WATER WORKS MERCURY SPILL","ADDRESS":"600 7TH AVENUE NWTUSCALOOSA, AL  35405","COUNTY":"TUSCALOOSA","SITE SMSA":"","FEDERAL FACILITY":"N","NPL STATUS":"Not on the NPL","CORPORATELINK":"No","RECORD OF DECISION (ROD) INFO":"No","EPA REGIONALLINK":"No"}},{"type":"Feature","geometry":{"type":"Point","coordinates":[-87.380935,34.795582]},"properties":{"CERCLIS EPA ID":"AL7640006667","SITE NAME":"TVA WHEELER HYDRO PLANT","ADDRESS":"24455 AL HWY 101TOWN CREEK, AL  35672-3223","COUNTY":"LAWRENCE","SITE SMSA":"","FEDERAL FACILITY":"Y","NPL STATUS":"Not on the NPL","CORPORATELINK":"No","RECORD OF DECISION (ROD) INFO":"No","EPA REGIONALLINK":"No"}},{"type":"Feature","geometry":{"type":"Point","coordinates":[-85.608889,33.557778]},"properties":{"CERCLIS EPA ID":"ALN000409930","SITE NAME":"TYSON FOODS INC. HEFLIN PROCESSING PLANT","ADDRESS":"6879 HIGHWAY 9HEFLIN, AL  36264","COUNTY":"CLEBURNE","SITE SMSA":"","FEDERAL FACILITY":"N","NPL STATUS":"Not on the NPL","CORPORATELINK":"No","RECORD OF DECISION (ROD) INFO":"No","EPA REGIONALLINK":"No"}},{"type":"Feature","geometry":{"type":"Point","coordinates":[-88.199033,30.751159]},"properties":{"CERCLIS EPA ID":"AL2690320435","SITE NAME":"U.S. COAST GUARD SECTOR MOBILE","ADDRESS":"SOUTH BROAD STREETMOBILE, AL  36615","COUNTY":"MOBILE","SITE SMSA":"5160","FEDERAL FACILITY":"Y","NPL STATUS":"Not on the NPL","CORPORATELINK":"No","RECORD OF DECISION (ROD) INFO":"No","EPA REGIONALLINK":"No"}},{"type":"Feature","geometry":{"type":"Point","coordinates":[-85.83149,33.625465]},"properties":{"CERCLIS EPA ID":"ALSFN0407164","SITE NAME":"U.S. PIPE & FOUNDRY CO INC U.S. CASTINGS DIV","ADDRESS":"1831 FRONT STREETANNISTON, AL  36201-7510","COUNTY":"CALHOUN","SITE SMSA":"","FEDERAL FACILITY":"N","NPL STATUS":"Not on the NPL","CORPORATELINK":"No","RECORD OF DECISION (ROD) INFO":"No","EPA REGIONALLINK":"No"}},{"type":"Feature","geometry":{"type":"Point","coordinates":[-86.455824,34.343465]},"properties":{"CERCLIS EPA ID":"ALD031480031","SITE NAME":"UMICORE SPECIALTY CHEMICALS - ARAB","ADDRESS":"1951 GUNTERSVILLE ROADARAB, AL  35016-3993","COUNTY":"MARSHALL","SITE SMSA":"3440","FEDERAL FACILITY":"N","NPL STATUS":"Not on the NPL","CORPORATELINK":"No","RECORD OF DECISION (ROD) INFO":"No","EPA REGIONALLINK":"No"}},{"type":"Feature","geometry":{"type":"Point","coordinates":[-85.85367,33.66626]},"properties":{"CERCLIS EPA ID":"ALD047154232","SITE NAME":"UNION FOUNDRY CO","ADDRESS":"1501 WEST 17TH STREETANNISTON, AL  36201-3485","COUNTY":"CALHOUN","SITE SMSA":"450","FEDERAL FACILITY":"N","NPL STATUS":"Not on the NPL","CORPORATELINK":"No","RECORD OF DECISION (ROD) INFO":"No","EPA REGIONALLINK":"No"}},{"type":"Feature","geometry":{"type":"Point","coordinates":[-85.874444,33.684444]},"properties":{"CERCLIS EPA ID":"ALSFN0407040","SITE NAME":"UNION FOUNDRY CO LANDFILL","ADDRESS":"REEVES ROADANNISTON, AL  36202","COUNTY":"CALHOUN","SITE SMSA":"","FEDERAL FACILITY":"N","NPL STATUS":"Not on the NPL","CORPORATELINK":"No","RECORD OF DECISION (ROD) INFO":"No","EPA REGIONALLINK":"No"}},{"type":"Feature","geometry":{"type":"Point","coordinates":[-87.5619,33.21167]},"properties":{"CERCLIS EPA ID":"ALN000410263","SITE NAME":"UNIVERSITY BLVD MERCURY","ADDRESS":"1904 UNIVERSITY BLVDTUSCALOOSA, AL  35401","COUNTY":"TUSCALOOSA","SITE SMSA":"","FEDERAL FACILITY":"N","NPL STATUS":"Not on the NPL","CORPORATELINK":"No","RECORD OF DECISION (ROD) INFO":"No","EPA REGIONALLINK":"No"}},{"type":"Feature","geometry":{"type":"Point","coordinates":[-85.96943,33.65943]},"properties":{"CERCLIS EPA ID":"AL3210020027","SITE NAME":"US ARMY ANNISTON ARMY DEPOT","ADDRESS":"7 FRANKFORD AVENUEANNISTON, AL  36201-4199","COUNTY":"CALHOUN","SITE SMSA":"450","FEDERAL FACILITY":"Y","NPL STATUS":"Currently on the Final NPL","CORPORATELINK":"No","RECORD OF DECISION (ROD) INFO":"Yes","EPA REGIONALLINK":"No"}},{"type":"Feature","geometry":{"type":"Point","coordinates":[-85.733889,31.337222]},"properties":{"CERCLIS EPA ID":"AL6210020776","SITE NAME":"US ARMY AVIATION CENTER (USAAVNC) & FORT RUCKER FIRING RAN","ADDRESS":"HIGHWAY 84 AND HIGHWAY 231FORT RUCKER, AL  36362","COUNTY":"DALE","SITE SMSA":"","FEDERAL FACILITY":"Y","NPL STATUS":"Not on the NPL","CORPORATELINK":"No","RECORD OF DECISION (ROD) INFO":"No","EPA REGIONALLINK":"No"}},{"type":"Feature","geometry":{"type":"Point","coordinates":[-86.67305,34.64694]},"properties":{"CERCLIS EPA ID":"AL7210020742","SITE NAME":"US ARMY GARRISON - REDSTONE","ADDRESS":"4488 MARTIN ROAD - IMSE-RED-PWEHUNTSVILLE, AL  35898","COUNTY":"MADISON","SITE SMSA":"","FEDERAL FACILITY":"Y","NPL STATUS":"Currently on the Final NPL","CORPORATELINK":"No","RECORD OF DECISION (ROD) INFO":"Yes","EPA REGIONALLINK":"No"}},{"type":"Feature","geometry":{"type":"Point","coordinates":[-86.592026,34.727604]},"properties":{"CERCLIS EPA ID":"AL1640090014","SITE NAME":"US TVA HUNTSVILLE PRIMARY SUBSTATION","ADDRESS":"250 POLARD STREETHUNTSVILLE, AL  35801","COUNTY":"MADISON","SITE SMSA":"3440","FEDERAL FACILITY":"Y","NPL STATUS":"Not on the NPL","CORPORATELINK":"No","RECORD OF DECISION (ROD) INFO":"No","EPA REGIONALLINK":"No"}},{"type":"Feature","geometry":{"type":"Point","coordinates":[-87.650029,34.767588]},"properties":{"CERCLIS EPA ID":"AL2640006746","SITE NAME":"US TVA MUSCLE SHOALS","ADDRESS":"HWY 133N NEAR WILSON DAMMUSCLE SHOALS, AL  356621010","COUNTY":"COLBERT","SITE SMSA":"2650","FEDERAL FACILITY":"Y","NPL STATUS":"Not on the NPL","CORPORATELINK":"No","RECORD OF DECISION (ROD) INFO":"No","EPA REGIONALLINK":"No"}},{"type":"Feature","geometry":{"type":"Point","coordinates":[-85.755278,34.883314]},"properties":{"CERCLIS EPA ID":"AL8640006690","SITE NAME":"US TVA WIDOWS CREEK FOSSIL PLANT","ADDRESS":"2800 STEAM PLANT ROADSTEVENSON, AL  35772","COUNTY":"JACKSON","SITE SMSA":"","FEDERAL FACILITY":"Y","NPL STATUS":"Not on the NPL","CORPORATELINK":"No","RECORD OF DECISION (ROD) INFO":"No","EPA REGIONALLINK":"No"}},{"type":"Feature","geometry":{"type":"Point","coordinates":[-86.3268,33.3381]},"properties":{"CERCLIS EPA ID":"AL6210020008","SITE NAME":"USA ALABAMA ARMY AMMUNITION PLT","ADDRESS":"STATE HIGH WAY 235CHILDERSBURG, AL  35044","COUNTY":"TALLADEGA","SITE SMSA":"","FEDERAL FACILITY":"Y","NPL STATUS":"Currently on the Final NPL","CORPORATELINK":"No","RECORD OF DECISION (ROD) INFO":"Yes","EPA REGIONALLINK":"No"}},{"type":"Feature","geometry":{"type":"Point","coordinates":[-86.93531,33.5016]},"properties":{"CERCLIS EPA ID":"ALR000046060","SITE NAME":"VCC WYLAM","ADDRESS":"5500 10TH AVENUEPLEASANT GROVE, AL  35127","COUNTY":"JEFFERSON","SITE SMSA":"","FEDERAL FACILITY":"N","NPL STATUS":"Not on the NPL","CORPORATELINK":"No","RECORD OF DECISION (ROD) INFO":"No","EPA REGIONALLINK":"No"}},{"type":"Feature","geometry":{"type":"Point","coordinates":[-86.48255,32.73905]},